Business Name,Business Open or Closed?,Delivery/Take Out Only/Online Sales,Business Address,Business Phone Number,Business Website,Business Facebook Page,Business Twitter Page,Business Instagram Page,Last Modified Date/Time,Address,Latitude,Longitude,Accuracy Score,Accuracy Type,Zip,Source
1369 Coffee House,Open,"Delivery
Online Sales",757 Mass Ave,617-576-4600,https://www.1369coffeehouse.com/,https://www.facebook.com/1369Coffeehouse/,https://twitter.com/1369coffeehouse?ref_src=twsrc%5Egoogle%7Ctwcamp%5Eserp%7Ctwgr%5Eauthor,https://www.instagram.com/1369coffeehouse/?hl=en,2020-03-23T11:51:50Z,757 Massachusetts Ave,42.366545,-71.105308,1,rooftop,02139,City of Cambridge
1369 Coffee House,Open,"Delivery
Online Sales",1369 Cambridge Street,617-576-1369,https://www.1369coffeehouse.com/,https://www.facebook.com/1369Coffeehouse/,https://twitter.com/1369coffeehouse,https://www.instagram.com/1369coffeehouse/?hl=en,2020-03-23T11:51:50Z,1369 Cambridge Street,42.373779999999996,-71.10039,1,rooftop,02139,City of Cambridge
2 4-1 Optical,Closed,NA,128 Massachusetts Ave,(617) 441-0006,NA,https://www.facebook.com/241optical/,NA,NA,2020-03-24T08:00:58Z,128 Massachusetts Ave,42.360059,-71.094815,1,range_interpolation,02139,TIGER/Line® dataset from the US Census Bureau
5th Street Laundromat,Open,NA,58 5th Street,(617) 497-6900,NA,NA,NA,NA,2020-03-22T08:45:32Z,58 5th Street,42.371225,-71.083089,1,rooftop,02141,City of Cambridge
7-Eleven,Open,NA,All locations are open,NA,https://www.7-eleven.com/,NA,NA,NA,2020-03-22T16:15:36Z,NA,NA,NA,NA,NA,NA,NA
730 Tavern,Closed,NA,730 Massachusetts Ave,NA,https://730tavern.com/,https://www.facebook.com/730tavern/,NA,https://www.instagram.com/p/B9uqJpAgWJz/,2020-03-22T11:02:10Z,730 Massachusetts Ave,42.365997,-71.105025,1,rooftop,02139,City of Cambridge
9Zaab Thai Street Food,Open,"Delivery
Take Out",569 Cambridge St,(617) 868-6644,http://www.9zaab.com/,https://www.facebook.com/9Zaab/,NA,https://www.instagram.com/9Zaab/,2020-04-19T11:08:47Z,569 Cambridge St,42.371871,-71.085702,1,rooftop,02141,City of Cambridge
A&E Citgo Service Station,Open,NA,199 Concord Ave,(617) 876-3388,NA,NA,NA,NA,2020-03-22T09:56:16Z,199 Concord Ave,42.382732,-71.131038,1,rooftop,02138,City of Cambridge
Abbey,Open,Take Out,1755 Mass. Ave.,NA,http://abbeyrestaurant.com/cambridge/,https://www.facebook.com/abbey2cambridge/,https://twitter.com/Abbey2Cambridge,https://www.instagram.com/abbey2cambridge/,2020-04-09T11:09:22Z,1755 Massachusetts Ave,42.385111,-71.119183,1,rooftop,02140,City of Cambridge
ABC Pizza House,Open,"Delivery
Take Out",744 Massachusetts Ave,(617) 876-4607,NA,https://www.facebook.com/ABC-Pizza-House-135319099845881/,NA,NA,2020-03-23T14:58:35Z,744 Massachusetts Ave,42.366104,-71.105212,1,rooftop,02139,City of Cambridge
Abigail's,Closed,NA,291 Third St,617-945-9086,https://www.abigailskendall.com/,https://www.facebook.com/abigailskendall/,https://twitter.com/abigailskendall,NA,2020-04-23T18:03:14Z,291 Third St,42.364626,-71.083264,1,rooftop,02141,City of Cambridge
Abodeon,Closed,Online Sales,1731 Mass. Ave.,NA,http://www.abodeon.com/,https://www.facebook.com/abodeon/,https://twitter.com/abodeon/,NA,2020-03-23T11:55:06Z,1731 Massachusetts Ave,42.384191,-71.119283,1,rooftop,02138,City of Cambridge
Abroad Modern,Open,Online Sales,260 Concord Ave,NA,https://www.abroadmodern.com/,https://www.facebook.com/AbroadModern/,NA,https://www.instagram.com/abroadmodern/,2020-03-25T07:57:11Z,260 Concord Ave,42.383266,-71.132981,1,rooftop,02138,City of Cambridge
Aceituna Grill,Open,"Delivery
Take Out",605 West Kendall St,617-252-0707,http://aceitunagrill.com/,https://www.facebook.com/aceitunagrill/,NA,https://www.instagram.com/aceitunagrill/,2020-03-23T11:55:06Z,605 West Kendall St,42.364399,-71.081972,1,rooftop,02141,City of Cambridge
Advance Tire Company,Open,NA,185 Broadway,617-864-8989,https://www.advancetire.net/,https://www.facebook.com/www.advancetire.net,NA,NA,2020-03-21T18:29:58Z,185 Broadway,42.365926,-71.091892,1,rooftop,02139,City of Cambridge
Aestheticare Day Spa,Closed,NA,310 Cambridge St,(617) 661- 1113,https://www.aestheticaredayspa.com/,https://www.facebook.com/Aestheticare-Day-Spa-771184209580251/,NA,NA,2020-03-22T08:56:38Z,310 Cambridge St,42.371091,-71.081088,1,rooftop,02141,City of Cambridge
African Gift Items,Closed,Online Sales,1815 Mass. Ave.,(781) 640-3389,https://africangiftitems.com/,https://www.facebook.com/africangiftitems/,NA,https://www.instagram.com/africangiftitems/?hl=en,2020-03-23T11:55:06Z,1815 Massachusetts Ave,42.387136,-71.118975,1,rooftop,02140,City of Cambridge
Al's Café,Closed,NA,600 Technology Square,NA,http://www.alscafes.com/index.php,NA,NA,NA,2020-03-24T08:00:58Z,600 Technology Square,42.363078,-71.093063,1,rooftop,02139,City of Cambridge
Aladdin Auto Service,Open,NA,162 Alewife Brook Pkwy,(617) 547-8000,NA,NA,NA,NA,2020-03-23T16:17:21Z,162 Alewife Brook Pkwy,42.391131,-71.137457,1,rooftop,02138,City of Cambridge
Alan Russo Hair Design,Closed,NA,2516 Mass. Ave,617) 999-2366,NA,NA,NA,NA,2020-03-22T17:48:07Z,2516 Massachusetts Ave,42.399443,-71.133127,1,rooftop,02140,City of Cambridge
Albert's Market,Open,NA,638 Cambridge St,(617) 491-0288,NA,https://www.facebook.com/AlbertsMarket,NA,https://www.instagram.com/albertsmarket/,2020-03-22T08:56:38Z,638 Cambridge St,42.371851,-71.087014,1,rooftop,02141,City of Cambridge
Albertine Press,Closed,Online Sales,1309 Cambridge Street,617-945-5519,https://albertinepress.com/,https://www.facebook.com/albertinepress,NA,https://www.instagram.com/albertinepress/,2020-03-23T11:55:06Z,1309 Cambridge Street,42.373658,-71.099508,1,rooftop,02139,City of Cambridge
Alden and Harlow,Closed,Online Sales,40 Brattle St,NA,http://www.aldenharlow.com/,https://www.facebook.com/AldenAndHarlow,https://twitter.com/AldenHarlow,https://www.instagram.com/aldenharlow/,2020-03-23T14:39:21Z,40 Brattle St,42.373628,-71.121362,1,rooftop,02138,City of Cambridge
Aleppo Palace,Open,"Delivery
Take Out",25 Central Square,(617) 945-7449,NA,NA,NA,NA,2020-04-04T09:34:42Z,25 Central Square,42.365398,-71.104577,1,rooftop,02139,City of Cambridge
Alfred Hair Salon,Closed,NA,8 Eliot St.,NA,http://www.alfredharvardsquare.com/,NA,NA,NA,2020-03-23T16:28:45Z,8 Eliot St.,42.372581,-71.12151,1,rooftop,02138,City of Cambridge
Alfredo's Italian Kitchen,Open,"Delivery
Take Out",691 Cambridge St,617-491-8292,http://www.alfredositaliankitchen.com/ak/home/,NA,NA,NA,2020-03-23T11:55:06Z,691 Cambridge St,42.372183,-71.088096,1,rooftop,02141,City of Cambridge
Ali Tailoring and Cleaning,Open,NA,164 Hampshire Street,617-354-7455,NA,NA,NA,NA,2020-03-21T21:01:51Z,164 Hampshire Street,42.371801,-71.098652,1,rooftop,02139,City of Cambridge
Alive and Kicking Lobsters,Open,"Delivery
Take Out",273 Putnam Ave,617-876-0451,NA,NA,NA,NA,2020-03-30T17:33:08Z,273 Putnam Ave,42.362533,-71.113995,1,rooftop,02139,"Office of Geographic Information (MassGIS), Commonwealth of Massachusetts, MassIT"
All Star Pizza Bar,Open,"Delivery
Take Out",1238 Cambridge Street,617-547-0836,https://allstarpizzabar.com/,NA,NA,https://www.instagram.com/allstarpizzabar/?hl=en,2020-03-23T11:55:06Z,1238 Cambridge Street,42.373228,-71.098045,1,rooftop,02139,"Office of Geographic Information (MassGIS), Commonwealth of Massachusetts, MassIT"
All Star Sandwich Bar,Closed,NA,1245 Cambridge Street,NA,https://allstarsandwichbar.com/,NA,NA,NA,2020-03-21T20:49:03Z,1245 Cambridge Street,42.373482,-71.09819,1,rooftop,02139,City of Cambridge
Amador Bilingual Voiceovers,Open,NA,North Cambridge,NA,https://amadorbilingualvoiceovers.com/,NA,NA,NA,2020-04-21T07:57:40Z,North Cambridge,42.380442,-71.132947,1,place,02138,TIGER/Line® dataset from the US Census Bureau
Amelia's Trattoria,Closed,NA,111 Harvard St,617-868-7600,https://www.ameliastrattoria.com/,NA,NA,NA,2020-03-23T12:01:03Z,111 Harvard St,42.36499,-71.0927,1,rooftop,02139,City of Cambridge
Amorino Gelato,Open,Take Out,50 JFK St.,NA,https://www.amorino.com/us/,NA,NA,NA,2020-04-07T19:58:05Z,50 JFK St.,42.372051,-71.120456,1,rooftop,02138,City of Cambridge
Andala Coffee House,Closed,NA,286 Franklin St,NA,NA,https://www.facebook.com/andalacoffeehouse/,NA,NA,2020-03-22T11:15:22Z,286 Franklin St,42.364764,-71.105745,1,rooftop,02139,City of Cambridge
Andover Shop,Closed,Online Sales,22 Holyoke St.,NA,https://www.instagram.com/the_andover_shop/,https://www.facebook.com/AndoverShop/,NA,https://www.instagram.com/the_andover_shop/,2020-03-23T15:38:33Z,22 Holyoke St.,42.37227,-71.118333,1,rooftop,02138,City of Cambridge
Andre Hair Salon,Closed,NA,1206 Massaschusetts Ave,(617) 354-5210,NA,NA,NA,NA,2020-03-22T22:24:53Z,1206 Massaschusetts Ave,42.371851,-71.115392,0.33,place,02138,TIGER/Line® dataset from the US Census Bureau
Andy's Diner,Open,"Delivery
Take Out",2030 Mass Ave.,617.497.1444,http://www.andysdiner.net/,https://www.facebook.com/Andys-Diner-94923351791/,https://twitter.com/Andys_Diner,NA,2020-03-23T12:01:03Z,2030 Massachusetts Ave,42.390694,-71.122124,1,rooftop,02140,City of Cambridge
Anime Zakka,Closed,Online Sales,36 JFK St.,NA,https://www.animezakka.com/,https://www.facebook.com/Anime-Zakka-326943250672606,NA,NA,2020-03-23T15:23:43Z,36 JFK St.,42.372747,-71.119871,1,rooftop,02138,City of Cambridge
Ann Taylor,Closed,NA,44 Brattle St,NA,https://stores.anntaylor.com/ma/cambridge/44-brattle-street.html,NA,NA,NA,2020-03-23T14:52:45Z,44 Brattle St,42.373915,-71.121581,1,rooftop,02138,City of Cambridge
Anna's Taqueria,Open,"Delivery
Take Out",1 Porter Square,NA,https://www.annastaqueria.com/,NA,NA,NA,2020-03-23T12:01:03Z,1 Porter Square,42.388587,-71.118688,1,rooftop,02140,City of Cambridge
Anthropologie,Closed,NA,44 Brattle St,NA,https://www.anthropologie.com/stores/harvard-square-cambridge,NA,NA,NA,2020-03-23T14:52:45Z,44 Brattle St,42.373915,-71.121581,1,rooftop,02138,City of Cambridge
Antonia Bodywork,Closed,NA,872 Mass. Ave.,(617) 233-6871,http://www.antoninabodywork.com,NA,NA,NA,2020-03-26T18:02:11Z,872 Massachusetts Ave,42.367629,-71.107587,1,rooftop,02139,City of Cambridge
Apple Cinemas,Closed,NA,168 Alewife Brook Pkwy,NA,http://www.antoninabodywork.com,NA,NA,NA,2020-03-26T18:02:11Z,168 Alewife Brook Pkwy,42.39134,-71.138422,1,rooftop,02138,City of Cambridge
Arams #2 House of Pizza,Open,"Delivery
Take Out",345 Cambridge St,617-354-5154,https://www.arams2pizza.com/,NA,NA,NA,2020-03-23T12:01:03Z,345 Cambridge St,42.371375,-71.081793,1,rooftop,02141,City of Cambridge
Area Four,Open,"Delivery
Take Out",500 Technology Square,617-758-4444,https://www.areafour.com/location/area-four-kendall-square/,https://www.facebook.com/areafourcambridge,https://twitter.com/area_four,https://www.instagram.com/areafour/#,2020-03-29T14:12:15Z,500 Technology Square,42.363465,-71.092452,1,rooftop,02139,City of Cambridge
Armageddon Record Shop,Closed,"Delivery
Online Sales
Take Out",12B Eliot St.,(617) 492-1235,http://www.armageddonshopboston.com/index_boston.php,https://www.facebook.com/Armageddon-Shop-Boston-106339932754368/,NA,NA,2020-03-23T16:28:45Z,12B Eliot St.,42.372361,-71.121618,0.9,rooftop,02138,City of Cambridge
Armando's Pizza and Subs,Open,"Delivery
Take Out",163 Huron Ave,(617) 354-8275,NA,https://www.facebook.com/Armandos-pizza-subs-403505073042891/,NA,NA,2020-03-23T12:01:03Z,163 Huron Ave,42.382327,-71.131366,1,rooftop,02138,City of Cambridge
Aroush's Tailor Shop,Open,NA,864 Massachusetts Ave,(617) 354-0142,NA,NA,NA,NA,2020-03-22T10:48:10Z,864 Massachusetts Ave,42.367532,-71.107392,1,rooftop,02139,City of Cambridge
Arrow Cleaning and Tailoring,Closed,NA,1134 Massachusetts Ave,(617)-354-3233,https://www.arrowdrycleaners.com/,https://www.facebook.com/ArrowDryCleaners,NA,NA,2020-04-02T18:28:37Z,1134 Massachusetts Ave,42.370897,-71.114215,1,rooftop,02138,City of Cambridge
Art and Soul Yoga,Open,Online Sales,91 Hampshire St.,617-594-1794,http://www.artsoulyoga.com/Art_%26_Soul/Home.html,NA,NA,NA,2020-04-23T12:09:24Z,91 Hampshire St.,42.368962,-71.094832,1,rooftop,02139,City of Cambridge
ArtBar,Closed,NA,40 Edwin Land Blvd,NA,https://www.artbarcambridge.com/,https://www.facebook.com/ArtBarCambridge,https://twitter.com/artbarcambridge,https://www.instagram.com/artbarcambridge/,2020-03-22T08:56:38Z,40 Edwin Land Blvd,42.366789,-71.075076,0.33,place,02138,TIGER/Line® dataset from the US Census Bureau
Arthur Murray Dance Center,Closed,NA,151 Alewife Brook Pkwy,NA,https://arthurmurraydanceclasses.com/cambridge/?utm_source=gmb&utm_medium=organic&utm_campaign=am_cambridge,NA,NA,NA,2020-03-22T13:55:56Z,151 Alewife Brook Pkwy,42.393633,-71.141173,1,rooftop,02140,City of Cambridge
Artisans Trading Furniture,Closed,NA,125 Fawcett St,NA,https://artisans-trading.com/,https://www.facebook.com/artisanstrading,NA,https://www.instagram.com/artisanstrading/,2020-03-22T13:29:38Z,125 Fawcett St,42.392746,-71.147459,1,rooftop,02138,City of Cambridge
Asa Hair Design,Closed,NA,36 JFK St,(617) 661-6573,NA,https://www.facebook.com/Asa.Hair.Design,NA,NA,2020-03-23T15:30:49Z,36 JFK St,42.372747,-71.119871,1,rooftop,02138,City of Cambridge
Asgard,Closed,NA,350 Massachusetts Ave,NA,http://www.classicirish.com/,https://www.facebook.com/AsgardCambridge/,NA,NA,2020-03-23T14:14:50Z,350 Massachusetts Ave,42.362742,-71.099509,1,rooftop,02139,City of Cambridge
Asmara Restaurant,Open,Take Out,739 Mass. Ave.,617-864-7447,http://www.asmararestaurantboston.com/,NA,NA,NA,2020-03-23T17:13:25Z,739 Massachusetts Ave,42.366458,-71.105164,1,rooftop,02139,City of Cambridge
Atlas Barber Shop,Closed,NA,14A Eliot St.,(617) 945-1876,https://atlasbarbershop.net/,NA,NA,NA,2020-03-23T16:28:45Z,14A Eliot St.,42.37218,-71.121593,0.9,rooftop,02138,City of Cambridge
Atomic Bean Café,Closed,NA,904 Massachusetts Ave,NA,NA,https://www.facebook.com/atomicbeancafe/,NA,https://www.instagram.com/atomicbeancafe/,2020-03-22T10:37:12Z,904 Massachusetts Ave,42.368193,-71.108613,1,rooftop,02139,City of Cambridge
Atwood's Tavern,Closed,NA,877 Cambridge St,NA,https://www.atwoodstavern.com/,https://www.facebook.com/atwoodstavern,https://twitter.com/AtwoodsTvrn,https://www.instagram.com/atwoods_tavern/,2020-03-22T08:56:38Z,877 Cambridge St,42.372619,-71.091477,1,rooftop,02141,City of Cambridge
Audio Lab,Open,NA,36 JFK St.,(617) 864-9810,NA,https://www.facebook.com/pages/category/Electronics-Store/Audio-Lab-308166735868714/,NA,NA,2020-03-23T15:48:48Z,36 JFK St.,42.372747,-71.119871,1,rooftop,02138,City of Cambridge
Automatic,Closed,NA,50 Hampshire St,NA,https://www.theautomaticbar.com/,NA,NA,NA,2020-03-23T14:14:50Z,50 Hampshire St,42.366887,-71.09283,1,rooftop,02139,City of Cambridge
Azalea Massage,Closed,NA,2326 Mass. Ave.,(617) 661-5749,NA,NA,NA,NA,2020-03-22T18:47:52Z,2326 Massachusetts Ave,42.395739,-71.128615,1,rooftop,02140,City of Cambridge
B Good,Open,Delivery,301 Third St,857-285-6970,https://www.bgood.com/,https://www.facebook.com/BGOOD,https://twitter.com/b_good_,https://www.instagram.com/b.goodofficial/,2020-03-23T12:01:03Z,301 Third St,42.3642,-71.083446,1,rooftop,02141,City of Cambridge
Bagelsaurus,Closed,Online Sales,1796 Mass. Ave.,NA,http://www.bagelsaurus.com/,https://www.facebook.com/bagelsaurus13,https://twitter.com/bagelsaurus13,https://www.instagram.com/bagelsaurus13/,2020-03-23T12:01:03Z,1796 Massachusetts Ave,42.386068,-71.119453,1,rooftop,02140,City of Cambridge
Bambara,Closed,NA,25 Edwin Land Blvd,NA,https://www.bambara-cambridge.com/,https://www.facebook.com/Bambara.Cambridge,NA,https://www.instagram.com/bambaracamb/,2020-03-22T08:56:38Z,25 Edwin Land Blvd,42.367834,-71.07497,0.33,place,02138,TIGER/Line® dataset from the US Census Bureau
Baraka Cuisine,Open,Delivery,1728 Mass. Ave.,(617) 868-3951,https://www.barakacuisine.com/,https://www.facebook.com/barakacafe1998/,NA,NA,2020-03-23T12:01:03Z,1728 Massachusetts Ave,42.38414,-71.119664,1,rooftop,02138,City of Cambridge
Barismo,Closed,NA,295 Third St.,NA,http://www.barismo.com/locations/,NA,NA,NA,2020-03-21T18:40:23Z,295 Third St.,42.364427,-71.08338,1,rooftop,02141,City of Cambridge
Barismo,Closed,Online Sales,364 Broadway,617-714-5536,http://www.barismo.com/locations,NA,https://twitter.com/barismo,https://www.instagram.com/barismocoffee/,2020-03-23T12:01:03Z,364 Broadway,42.37054,-71.104367,1,rooftop,02139,City of Cambridge
Barre & Soul,Closed,Online Sales,36 JFK St.,NA,https://www.barresoul.com/harvard-square,https://www.facebook.com/barresoul,https://twitter.com/BarreSoul,https://www.instagram.com/barresoul/,2020-03-23T15:26:49Z,36 JFK St.,42.372747,-71.119871,1,rooftop,02138,City of Cambridge
Base Crave,Open,Take Out,344 Huron Ave.,617-945-1485,http://www.basecrave.com/,https://www.facebook.com/basecrave/,NA,NA,2020-03-23T12:09:05Z,344 Huron Ave.,42.381162,-71.137997,1,rooftop,02138,City of Cambridge
Basil Tree Catering & Café,Closed,NA,10 Fawcett St,NA,https://www.basiltree.com/,NA,NA,NA,2020-03-22T13:23:06Z,10 Fawcett St,42.389603,-71.145508,1,rooftop,02138,City of Cambridge
Basta Pasta,Open,Delivery,319 Western Anve,(617) 576-6672,https://bastapastacambridge.com/,https://www.facebook.com/Basta-Pasta-Trattoria-387210304760903/,NA,NA,2020-03-27T18:19:44Z,319 Western Ave,42.364642,-71.113231,1,rooftop,02139,City of Cambridge
Bay State Pool Supplies,Open,NA,691 Concord Ave.,NA,http://www.baystatepools.com/,NA,NA,NA,2020-03-23T16:46:14Z,691 Concord Ave.,42.390266,-71.150974,1,rooftop,02138,City of Cambridge
Beantown Taqueria,Open,"Delivery
Take Out",245 Massachusetts Ave,617-441-8689,http://www.beantowntaq.com/,https://www.facebook.com/beantowntaqueria/,NA,NA,2020-03-23T12:09:05Z,245 Massachusetts Ave,42.361739,-71.097241,1,rooftop,02139,City of Cambridge
Beat Brew Hall,Closed,NA,13A Brattle St,NA,https://www.beatbrewhall.com/,https://www.facebook.com/beatbrewhall/,NA,https://www.instagram.com/beatbrewhall/,2020-03-23T08:59:51Z,13A Brattle St,42.37345,-71.120147,0.9,rooftop,02138,City of Cambridge
Beauty Spa,Closed,NA,1766 Mass. Ave.,NA,https://www.beautyspacambridge.com/,https://www.facebook.com/trinitystouch/,NA,NA,2020-03-22T20:23:08Z,1766 Massachusetts Ave,42.385391,-71.119528,1,rooftop,02140,City of Cambridge
Beauty's Pizza,Open,"Delivery
Take Out",187 Hampshire Street,617-876-6969,http://beautys-pizza.com/zgrid/themes/13156/intro/index.jsp,https://www.facebook.com/BeautysPizza/,NA,https://www.instagram.com/beautyspizza/,2020-03-23T12:09:05Z,187 Hampshire Street,42.372755,-71.099431,1,rooftop,02139,City of Cambridge
BeautyBase Eyebrow Threading,Closed,NA,574 Cambridge St,617-499-9900,https://www.beautybasethreadnwax.com/,https://www.facebook.com/beautybasethreading/,NA,NA,2020-03-22T08:56:38Z,574 Cambridge St,42.371713,-71.085925,1,rooftop,02141,City of Cambridge
Bedworks,Closed,NA,15 Western Ave,NA,http://www.bedworks.net/,NA,NA,NA,2020-03-27T18:12:05Z,15 Western Ave,42.36535,-71.104985,1,rooftop,02139,City of Cambridge
Benedetto,Closed,NA,1 Bennett St.,617-661-5050,http://www.benedettocambridge.com/,NA,NA,NA,2020-03-23T16:35:27Z,1 Bennett St.,42.371992,-71.122511,1,rooftop,02138,City of Cambridge
Berryline,Open,"Delivery
Take Out",All locations,NA,https://berryline.com/,https://www.facebook.com/theberryline/,https://twitter.com/berryline,https://www.instagram.com/theberryline/,2020-03-23T12:09:05Z,NA,NA,NA,NA,NA,NA,NA
Bertucci's,Closed,NA,5 Cambridge Park Dri,NA,https://locations.bertuccis.com/us/ma/cambridge/5-cambridge-park-drive,NA,NA,NA,2020-03-22T13:55:56Z,5 Cambridge Park Dri,42.394984,-71.141351,1,rooftop,02140,City of Cambridge
Bertucci's,Open,"Delivery
Take Out",799 Main St,NA,https://locations.bertuccis.com/us/ma/cambridge/799-main-street,NA,NA,NA,2020-03-23T12:09:05Z,799 Main St,42.363357,-71.097282,1,rooftop,02139,City of Cambridge
Betty's Hair Now,Closed,NA,397 Cambridge St,(617) 868-9125,NA,https://www.facebook.com/Bettyshairnowsalon,NA,NA,2020-03-22T08:56:38Z,397 Cambridge St,42.371492,-71.082726,1,rooftop,02141,City of Cambridge
Big Picture Framing,Closed,NA,Both locations,NA,https://www.bigpictureframing.com/our-locations/cambridge-porter-sq,https://www.facebook.com/bigpictureframing,NA,NA,2020-03-22T17:22:34Z,NA,NA,NA,NA,NA,NA,NA
Bisq,Closed,NA,1071 Cambridge Street,NA,http://www.bisqcambridge.com/,https://www.facebook.com/bisqrestaurant/,https://twitter.com/BisqCambridge?ref_src=twsrc%5Etfw%7Ctwcamp%5Eembeddedtimeline%7Ctwterm%5Eprofile%3ABisqCambridge&ref_url=http%3A%2F%2Fwww.bisqcambridge.com%2F,https://www.instagram.com/bisqcambridge/,2020-03-21T21:47:13Z,1071 Cambridge Street,42.373083,-71.095123,1,rooftop,02139,City of Cambridge
Black Sheep,Closed,NA,350 Main St,NA,https://kendallhotel.com/dining/,NA,NA,NA,2020-03-23T14:14:50Z,350 Main St,42.362397,-71.087277,1,rooftop,02142,City of Cambridge
Black Sheep Bagel,Open,"Delivery
Take Out",56 JFK St.,617-945-2189,https://www.blacksheepbagelcafe.com/,NA,NA,https://www.instagram.com/blacksheepbagelcafe/,2020-04-11T16:58:57Z,56 JFK St.,42.371797,-71.120616,1,rooftop,02138,City of Cambridge
Blackbird Doughnuts,Closed,NA,1350 Mass Ave.,617.482.9000,https://www.blackbirddoughnuts.com/harvard-square,NA,NA,NA,2020-03-23T08:23:05Z,1350 Massachusetts Ave,42.372971,-71.11848,1,rooftop,02138,City of Cambridge
Blaze Pizza,Open,"Delivery
Take Out",One Canal Park,(857) 256-8062,https://hq.blazepizza.com/locations/cambridge/,NA,NA,NA,2020-03-23T12:09:05Z,One Canal Park,42.380442,-71.132947,1,place,02138,TIGER/Line® dataset from the US Census Bureau
Blue Bag Records,Closed,Online Sales,2325 Mass. Ave.,(617) 864-2583,https://bluebagrecords.com/,https://www.facebook.com/bluebagrecords,https://www.instagram.com/bluebagrecords/,NA,2020-03-23T12:09:05Z,2325 Massachusetts Ave,42.395864,-71.128267,1,rooftop,02140,City of Cambridge
Blue Bottle,Closed,NA,88 Ames St,NA,https://bluebottlecoffee.com/,https://www.facebook.com/bluebottlecoffee,https://twitter.com/bluebottleroast,https://www.instagram.com/bluebottle/,2020-03-21T18:40:23Z,88 Ames St,42.363312,-71.087597,1,rooftop,02142,"Office of Geographic Information (MassGIS), Commonwealth of Massachusetts, MassIT"
Blue Bottle,Closed,NA,40 Bow St,NA,https://bluebottlecoffee.com/cafes/harvard-square,https://www.facebook.com/bluebottlecoffee,https://twitter.com/bluebottleroast,https://www.instagram.com/bluebottle/,2020-03-21T18:40:23Z,40 Bow St,42.371503,-71.116757,1,rooftop,02138,City of Cambridge
Bluemoon Smoke Shop,Closed,NA,1295 Cambridge Street,NA,NA,NA,NA,NA,2020-03-26T13:22:18Z,1295 Cambridge Street,42.373602,-71.099037,1,rooftop,02139,City of Cambridge
Bluemoon Smoke Shop,Closed,NA,1704 Mass. Ave.,NA,https://bluemoonsmokeshops.com/,NA,NA,NA,2020-03-26T13:22:18Z,1704 Massachusetts Ave,42.383247,-71.119757,1,rooftop,02138,City of Cambridge
BlueSmoke Shop,Closed,NA,2034 Mass Ave.,NA,https://bluemoonsmokeshops.com/,NA,NA,NA,2020-03-26T13:22:18Z,2034 Massachusetts Ave,42.390731,-71.122203,1,rooftop,02140,City of Cambridge
Boathouse,Closed,NA,65 Mt. Auburn St,NA,https://www.boathousecambridge.com/,https://www.facebook.com/theboathouseharvardsquare/,NA,NA,2020-03-23T15:38:33Z,65 Mt. Auburn St,42.371953,-71.118066,1,rooftop,02138,City of Cambridge
Bob Slate Stationer,Closed,NA,30 Brattle St,NA,http://bobslatestationer.com/,https://www.facebook.com/Bob-Slate-Stationer-151633671585656/,NA,NA,2020-03-23T08:59:51Z,30 Brattle St,42.373149,-71.120665,1,rooftop,02138,City of Cambridge
Boca Grande,Open,"Delivery
Take Out",149 First St,(617) 354-5550,http://bocagranderestaurant.com/,https://www.facebook.com/bocaburrito/,NA,NA,2020-04-21T16:16:19Z,149 First St,42.366254,-71.078065,1,rooftop,02141,City of Cambridge
Body One Massage,Closed,NA,1776 Mass. Ave.,NA,https://www.bodyonemassage.com/,NA,NA,NA,2020-03-22T20:04:08Z,1776 Massachusetts Ave,42.385753,-71.11949,1,rooftop,02140,City of Cambridge
BodyScapes Fitness,Closed,NA,356 Third St,617- 252-0020,https://www.bodyscapesfitness.com/gym-locations/kendall-square/our-facility/,https://www.facebook.com/BodyScapesFitness,https://twitter.com/BodyScapesFit,NA,2020-03-21T18:45:28Z,356 Third St,42.363619,-71.083436,1,rooftop,02141,City of Cambridge
Bon Chon,Open,Delivery,57 JFK St.,NA,https://bonchon.com/korean-fried-chicken-cambridge-ma/,NA,NA,NA,2020-03-23T12:09:05Z,57 JFK St.,42.372038,-71.120733,1,rooftop,02138,City of Cambridge
Bon Me - Alewife,Closed,NA,201 Alewife Brooke Pkwy,617-945-2822,http://www.bonmetruck.com/,https://www.facebook.com/bonmefoods,https://twitter.com/bonme,https://www.instagram.com/bonme/,2020-03-21T18:45:28Z,201 Alewife Brook Pkwy,42.390171,-71.142815,1,rooftop,02138,"Office of Geographic Information (MassGIS), Commonwealth of Massachusetts, MassIT"
Bon Me - Kendall,Closed,NA,One Kendall Square,617-945-2615,http://www.bonmetruck.com/,https://www.facebook.com/bonmefoods,https://twitter.com/bonme,https://www.instagram.com/bonme/,2020-03-21T18:45:28Z,One Kendall Square,42.366971,-71.090615,0.33,place,02138,TIGER/Line® dataset from the US Census Bureau
Bon Me Test Kitchen,Closed,NA,60 Binney Street,617-714-5439,http://www.bonmetruck.com/,https://www.facebook.com/bonmefoods,https://twitter.com/bonme,https://www.instagram.com/bonme/,2020-03-21T18:45:28Z,60 Binney Street,42.364928,-71.079124,1,rooftop,02142,"Office of Geographic Information (MassGIS), Commonwealth of Massachusetts, MassIT"
Bon Me- Harvard,Closed,NA,1350 Mass. Ave.,617-665-5177,http://www.bonmetruck.com/,https://www.facebook.com/bonmefoods,https://twitter.com/bonme,https://www.instagram.com/bonme/,2020-03-22T21:43:15Z,1350 Massachusetts Ave,42.372971,-71.11848,1,rooftop,02138,City of Cambridge
Bondir,Open,Take Out,279A Broadway,617-661-0009,http://www.bondircambridge.com/,https://www.facebook.com/BondirRestaurant/,https://twitter.com/BondirCambridge,https://www.instagram.com/jwadebond/,2020-03-23T12:09:05Z,279A Broadway,42.36815,-71.097765,0.9,rooftop,02139,City of Cambridge
Bonny's Garden Center,Open,NA,41 Bay State Rd.,(617) 547-1585,http://bonnysgardencenter.wixsite.com/bonnysgardencenter,https://www.facebook.com/BonnysGardenCenter/?rf=141609332551965,NA,NA,2020-03-23T16:38:59Z,41 Bay State Rd.,42.387415,-71.139624,1,rooftop,02138,City of Cambridge
Boomerangs,Closed,NA,563 Mass. Ave.,NA,https://shopboomerangs.org/,NA,NA,NA,2020-03-24T08:17:40Z,563 Massachusetts Ave,42.364714,-71.102233,1,rooftop,02139,City of Cambridge
Border Café,Closed,NA,32 Church St,NA,https://bordercafe.com/,NA,NA,NA,2020-03-23T15:07:17Z,32 Church St,42.374308,-71.12024,1,rooftop,02138,City of Cambridge
Boston Bed Company,NA,NA,625 Cambridge St,(617) 782-3830,https://www.bostonbed.com/,https://www.facebook.com/bostonbedcompany/,NA,NA,2020-04-11T16:58:57Z,625 Cambridge St,42.372007,-71.086733,1,rooftop,02141,City of Cambridge
Boston Burger Company,Open,"Delivery
Take Out",1105 Mass Ave,(857) 242-3605,https://www.bostonburgercompany.com/,https://www.facebook.com/BostonBurgerCompany/,https://twitter.com/bostonburgerco/,https://www.instagram.com/bostonburger_co/,2020-03-24T08:17:40Z,1105 Massachusetts Ave,42.370652,-71.11342,1,rooftop,02138,City of Cambridge
Boston Convenience,Open,NA,1 Leighton St,(617) 945-0069,https://www.bostonconvenience.com/?fbclid=IwAR0D-IsIC3OfuUMkHyoOx-OWOtG0EntKt_aFPwLQuR7fWaJ6QpGTV92_3iY,https://www.facebook.com/bostonconvenience/,NA,NA,2020-03-22T09:07:13Z,1 Leighton St,42.370074,-71.073392,1,rooftop,02141,City of Cambridge
Boston Dog Co.,Closed,NA,2512 Mass. Ave.,NA,https://www.bostondog.co/,NA,NA,NA,2020-03-22T17:51:10Z,2512 Massachusetts Ave,42.399356,-71.132991,1,rooftop,02140,City of Cambridge
Boston Dog Company,Closed,NA,All Locations,NA,https://www.bostondog.co/,https://www.facebook.com/Boston-Dog-Company-Cambridge-241820879218968/,NA,NA,2020-03-22T09:07:13Z,All Locations,42.380442,-71.132947,1,place,02138,TIGER/Line® dataset from the US Census Bureau
Boston iPhone Repair,Open,NA,1208 Mass. Ave,(617) 512-2258,https://bostoniphonerepair.com/,https://www.facebook.com/bostoniphonerepair/,NA,NA,2020-03-24T08:17:40Z,1208 Massachusetts Ave,42.371891,-71.115346,1,rooftop,02138,City of Cambridge
Boston Tattoo Company,Closed,NA,36 Prospect St,NA,https://www.bostontattoo.com/,NA,NA,NA,2020-03-22T11:26:03Z,36 Prospect St,42.366035,-71.10337,1,rooftop,02139,City of Cambridge
Bourbon Coffee,Closed,NA,1815 Mass. Ave.,NA,https://bourboncoffeeusa.com/cambridge-ma,https://www.facebook.com/BourbonCoffeeUSA,NA,NA,2020-03-22T16:15:36Z,1815 Massachusetts Ave,42.387136,-71.118975,1,rooftop,02140,City of Cambridge
Brattle Square Florist,Closed,NA,31 Brattle St,(617) 876-9839,https://brattlesquareflorist.com/,https://www.facebook.com/BrattleSquareFlorist/,NA,https://www.instagram.com/brattlesquareflorist/,2020-04-05T17:46:37Z,31 Brattle St,42.373512,-71.120822,1,rooftop,02138,City of Cambridge
Brattle Square Optical,Closed,NA,1077 Mass. Ave,NA,https://www.brattlesquareoptical.com/,https://www.facebook.com/BrattleSquareOptical/,NA,NA,2020-03-24T08:17:40Z,1077 Massachusetts Ave,42.370354,-71.113129,1,rooftop,02138,City of Cambridge
Brattle Theater,Closed,Online Sales,40 Brattle St,NA,https://www.brattlefilm.org/,https://www.facebook.com/brattletheatre/,https://twitter.com/BrattleTheatre,https://www.facebook.com/brattletheatre/,2020-03-23T14:39:21Z,40 Brattle St,42.373628,-71.121362,1,rooftop,02138,City of Cambridge
Brazilian Ipanema Hair Salon,Closed,NA,781 Cambridge St,(617) 491-3771,http://ipanemahairsalon.com/,https://www.facebook.com/pages/category/Hair-Salon/Brazilian-Ipanema-Hair-Salon-1050631658367828/,NA,NA,2020-03-22T09:07:13Z,781 Cambridge St,42.372396,-71.089728,1,rooftop,02141,City of Cambridge
Bridge Gallery,Closed,NA,5 Pemberton St,NA,https://www.bridge.photos/contact,NA,NA,NA,2020-03-22T17:42:44Z,5 Pemberton St,42.392354,-71.125294,1,rooftop,02140,City of Cambridge
Bright Horizons,Closed,NA,2465 Mass. Ave.,NA,NA,NA,NA,NA,2020-03-22T17:56:00Z,2465 Massachusetts Ave,42.39883,-71.131705,1,rooftop,02140,City of Cambridge
Brit Bakery,Closed,NA,407 Concord Ave,NA,https://britbakery.com/,NA,NA,NA,2020-03-22T13:23:06Z,407 Concord Ave,42.385891,-71.137996,1,rooftop,02138,City of Cambridge
Broadsheet Coffee Roasters,Closed,NA,100 Kirkland St.,NA,https://www.broadsheetcoffee.com/,NA,NA,https://www.instagram.com/broadsheetcoffee/?hl=en,2020-03-30T19:39:49Z,100 Kirkland St.,42.377902,-71.10736,1,rooftop,02138,"Office of Geographic Information (MassGIS), Commonwealth of Massachusetts, MassIT"
Broadway Bicycle,Open,NA,351 Broadway,(617) 868–3392,http://broadwaybicycleschool.com/,NA,NA,NA,2020-03-27T14:22:18Z,351 Broadway,42.370418,-71.103514,1,rooftop,02139,City of Cambridge
Broadway Marketplace,Open,NA,468 Broadway,(617) 547-2335,https://www.broadwaymarketplace.com/,https://www.facebook.com/Broadwy1/,https://twitter.com/Broadwaymarkt,NA,2020-03-22T14:18:27Z,468 Broadway,42.37396,-71.113067,1,rooftop,02138,City of Cambridge
Brookline Market,Closed,NA,9 Brookline St.,(617) 354-2983,NA,NA,NA,NA,2020-04-04T15:38:09Z,9 Brookline St.,42.363788,-71.101715,1,rooftop,02139,City of Cambridge
Brother's Market,Open,NA,One Broadway,617-804-2700,https://brothers-marketplace.com/,NA,NA,NA,2020-03-21T18:56:47Z,One Broadway,42.380442,-71.132947,1,place,02138,TIGER/Line® dataset from the US Census Bureau
Brother's Market,Open,NA,414 Cambridge St,(617) 876-3005,NA,NA,NA,NA,2020-03-23T14:14:50Z,414 Cambridge St,42.371339999999996,-71.083016,1,rooftop,02141,City of Cambridge
Bryn Mawr Bookstore,Closed,NA,373 Huron Ave.,NA,https://brynmawrbookstore.com/,NA,NA,NA,2020-03-22T08:35:26Z,373 Huron Ave.,42.381258,-71.138905,1,rooftop,02138,City of Cambridge
Bukowski Tavern,Closed,NA,1287 Cambridge St,NA,https://bukowskitavern.net/,https://www.facebook.com/BukowskiCambridge/,https://twitter.com/bukscambridge,NA,2020-03-24T08:17:40Z,1287 Cambridge St,42.373589,-71.098943,1,rooftop,02139,City of Cambridge
C'est Bon Market and Liquors,Open,NA,1436 Mass Ave.,(617) 868-6580,NA,https://www.facebook.com/cestbonliquors/,NA,NA,2020-03-23T15:12:53Z,1436 Massachusetts Ave,42.374183,-71.11908,1,rooftop,02138,City of Cambridge
Cabot's Candy,Closed,NA,1300 Mass Ave,NA,https://www.cabotscandy.com/,https://www.facebook.com/cabotscandyprovincetown/,NA,https://www.instagram.com/cabots_candy/,2020-03-23T08:19:39Z,1300 Massachusetts Ave,42.372825,-71.117255,1,rooftop,02138,City of Cambridge
CAC Express,Closed,NA,101 Main Street,617-491-8272,https://www.cambridgeathletic.com/,https://www.facebook.com/CambridgeAthleticClub/,https://twitter.com/CACfitness,https://www.instagram.com/cambridgeathleticclub/,2020-03-21T18:56:47Z,101 Main Street,42.362219,-71.081584,1,rooftop,02139,City of Cambridge
Cafe Du Pays,Closed,Online Sales,233 Cardinal Medeiros Avenue,NA,http://cafedupays.com/,NA,NA,NA,2020-03-23T12:09:05Z,233 Cardinal Medeiros Avenue,42.367709,-71.091083,1,rooftop,02141,City of Cambridge
Caffe Nero,Closed,NA,All locations,NA,https://caffenero.com/us/,https://www.facebook.com/caffenerous/,https://twitter.com/CaffeNero_US,NA,2020-03-28T09:14:13Z,NA,NA,NA,NA,NA,NA,NA
Café Barada,Open,Take Out,2269 Mass. Ave.,NA,http://www.cafebarada.net/,https://www.facebook.com/CafeBarada,https://twitter.com/CafeBarada,https://www.instagram.com/cafebarada/,2020-04-02T14:47:59Z,2269 Massachusetts Ave,42.394762,-71.126962,1,rooftop,02140,City of Cambridge
Café Luna,Open,"Delivery
Take Out",612 Main St,617-576-3400,http://www.cafeluna-centralsq.com/,https://www.facebook.com/CafeLunaCentralSq,https://twitter.com/cafeluna,NA,2020-03-24T08:17:40Z,612 Main St,42.362876,-71.094125,1,rooftop,02139,"Office of Geographic Information (MassGIS), Commonwealth of Massachusetts, MassIT"
Café Luna Catering,Closed,NA,2346 Mass. Ave.,617) 576-3400,NA,NA,NA,NA,2020-03-22T18:43:40Z,2346 Massachusetts Ave,42.396026,-71.128955,1,range_interpolation,02140,TIGER/Line® dataset from the US Census Bureau
Café Mami,Open,Yes,1815 Mass. Ave.,(617) 547-9130,NA,https://www.facebook.com/CafeMamiCambridge/,NA,https://www.instagram.com/cafemamicambridge/,2020-03-22T19:28:52Z,1815 Massachusetts Ave,42.387136,-71.118975,1,rooftop,02140,City of Cambridge
Café Pamplona,Open,Take Out,12 Bow Street,(617) 492-0352,http://cafepamplona.weebly.com/,https://www.facebook.com/cafe-pamplona-359831337793/,NA,NA,2020-03-23T14:31:13Z,12 Bow Street,42.371749,-71.11552,1,rooftop,02138,City of Cambridge
Café Sushi,Closed,NA,1105 Massachusetts Ave,NA,https://cafesushicambridge.com/,https://www.facebook.com/cafesushi,NA,https://www.instagram.com/cafe_sushi/,2020-03-22T21:54:54Z,1105 Massachusetts Ave,42.370652,-71.11342,1,rooftop,02138,City of Cambridge
Café Zing,Closed,NA,Porter Square Shopping Mall,NA,https://www.portersquarebooks.com/cafe-zing,https://www.facebook.com/Cafe-Zing-311029530156/,NA,NA,2020-03-22T16:36:54Z,Porter Square Shopping Mall,42.38891,-71.119316,1,street_center,02140,TIGER/Line® dataset from the US Census Bureau
Cambridge Antiques Market,Closed,NA,201 Monsignore O'Brien Highway,NA,http://www.marketantique.com/?fbclid=IwAR1MQcSD9NfsHgSqLJsffGpNNNFisITnmNfWmbVCMXoUim0pU4RvxK63osA,https://www.facebook.com/cambridgeantiquemarket,NA,NA,2020-03-22T09:07:13Z,201 Monsignore O'Brien Highway,42.37245,-71.079148,1,rooftop,02141,City of Cambridge
Cambridge Artists' Cooperative,Closed,Online Sales,59A Church Stt,617-868-4434,https://cambridgeartistscoopshop.com/,NA,NA,NA,2020-03-24T08:17:40Z,59A Church St,42.37418,-71.121152,0.9,rooftop,02138,City of Cambridge
Cambridge Athletic Club,Closed,NA,600 Technology Square,617-494-8989,https://www.cambridgeathletic.com/,https://www.facebook.com/CambridgeAthleticClub/,https://twitter.com/CACfitness,https://www.instagram.com/cambridgeathleticclub/,2020-03-21T18:56:47Z,600 Technology Square,42.363078,-71.093063,1,rooftop,02139,City of Cambridge
Cambridge Athletic Club,Closed,NA,215 First Street,617-491-8989,https://www.cambridgeathletic.com/,https://www.facebook.com/CambridgeAthleticClub/,https://twitter.com/CACfitness,https://www.instagram.com/cambridgeathleticclub/,2020-03-21T18:56:47Z,215 First Street,42.364215,-71.078544,1,rooftop,02142,City of Cambridge
Cambridge Bicycle,Open,NA,259 Masschusetts Ave,(617) 876-6555,http://cambridgebicycle.com/,https://www.facebook.com/nacocentral,NA,NA,2020-03-22T12:26:32Z,259 Massachusetts Ave,42.361868,-71.097454,1,rooftop,02139,City of Cambridge
Cambridge Body & Brain Yoga andTai Chi,Closed,NA,1773 Mass. Ave.,NA,https://www.bodynbrain.com/cambridge,https://www.facebook.com/BodynBrainYoga,https://twitter.com/bodynbrainyoga,https://www.instagram.com/bodynbrainyogataichi/?hl=en,2020-03-25T10:14:23Z,1773 Massachusetts Ave,42.385494,-71.119113,1,rooftop,02140,City of Cambridge
Cambridge Brewing Co.,Closed,NA,One Kendall Square,617-494-1994,https://www.cambridgebrewingcompany.com/,https://www.facebook.com/CambridgeBrewing,https://twitter.com/CamBrewingCo,https://www.instagram.com/CamBrewingCo/,2020-03-21T19:01:20Z,One Kendall Square,42.366971,-71.090615,0.33,place,02138,TIGER/Line® dataset from the US Census Bureau
Cambridge Cat Clinic,Open,NA,1108 Cambridge St,617-245-0245,https://cambridgecatclinic.com/,NA,NA,NA,2020-03-22T08:45:32Z,1108 Cambridge St,42.372992000000004,-71.095779,1,rooftop,02139,City of Cambridge
Cambridge Common,Closed,NA,1667 Mass. Ave.,NA,https://cambridgecommonrestaurant.com/,https://www.facebook.com/cambridgecommonrestaurant,https://twitter.com/cambcommon,https://www.instagram.com/cambcommon/,2020-04-05T17:54:28Z,1667 Massachusetts Ave,42.382129,-71.119494,1,rooftop,02138,City of Cambridge
Cambridge Community Center for the Arts,Open,Online Sales,500 Kendall St.,NA,http://www.bccaonline.com/,NA,NA,NA,2020-04-19T11:14:22Z,500 Kendall St.,42.363962,-71.081698,1,rooftop,02142,City of Cambridge
Cambridge Community Television,Closed,NA,438 Massachusetts Ave,NA,https://www.cctvcambridge.org/,https://www.facebook.com/cctvcambridge/,https://twitter.com/cctvcambridge,NA,2020-03-22T11:54:38Z,438 Massachusetts Ave,42.363527,-71.100859,1,rooftop,02139,City of Cambridge
Cambridge House of Pizza,Open,"Delivery
Take Out",2420 Mass. Ave.,(617) 876-8083,http://www.cambridgehousepizza.com/,NA,NA,NA,2020-04-05T17:54:28Z,2420 Massachusetts Ave,42.397399,-71.130766,1,rooftop,02140,City of Cambridge
Cambridge Nails and Skin Spa,Closed,NA,2096 Mass Ave,(617) 945-1254,NA,NA,NA,NA,2020-03-22T17:22:34Z,2096 Massachusetts Ave,42.391391,-71.123593,1,rooftop,02140,City of Cambridge
Cambridge Naturals,Open,Online Sales,Porter Square Shopping Mall,617-492-4452,https://www.cambridgenaturals.com/,https://www.facebook.com/cambridgenaturals,https://twitter.com/CambNaturals,https://www.instagram.com/cambridgenaturals/,2020-04-11T17:06:57Z,Porter Square Shopping Mall,42.38891,-71.119316,1,street_center,02140,TIGER/Line® dataset from the US Census Bureau
Cambridge Nature's Way Dry Cleaners,Open,NA,47 Mt. Auburn St,NA,NA,NA,NA,NA,2020-03-23T14:31:13Z,47 Mt. Auburn St,42.371334,-71.116603,1,rooftop,02138,City of Cambridge
Cambridge Neighbors,Open,Online Sales,545 Concord Avenue   Cambridge MA 02138,617-864-1715,www.cambridgeneighbors.org,facebook.com/cambridgeneighbors,NA,NA,2020-04-06T15:38:01Z,545 Concord Avenue   Cambridge MA 02138,42.388103,-71.142565,1,rooftop,02138,City of Cambridge
Cambridge Pizzeria,Open,"Delivery
Take Out",263 Brookline St.,NA,https://www.cambridgepizzamenu.com/,NA,NA,NA,2020-04-19T11:14:22Z,263 Brookline St.,42.357666,-71.107842,1,rooftop,02139,City of Cambridge
Cambridge Rug Company,Closed,NA,1157 Cambridge Street,617-354-0740,http://www.cambridgerug.com/,NA,NA,NA,2020-04-05T17:54:28Z,1157 Cambridge Street,42.373281,-71.096582,1,rooftop,02139,City of Cambridge
Cambridge School of Culinary Arts,Closed,Online Sales,2020 Mass Ave.,NA,NA,NA,NA,NA,2020-03-23T12:21:31Z,2020 Massachusetts Ave,42.390579,-71.121873,1,rooftop,02140,City of Cambridge
Cambridge Shoe Repair,Closed,NA,1105 Massachusetts Ave,(617) 498-3200,NA,NA,NA,NA,2020-04-11T17:06:57Z,1105 Massachusetts Ave,42.370652,-71.11342,1,rooftop,02138,City of Cambridge
Cambridge Smoke Shop,Closed,NA,1199 Cambridge Street,617-945-5520,https://www.cambridgesmokeshop.com/,NA,NA,NA,2020-04-11T17:06:57Z,1199 Cambridge Street,42.373377,-71.097305,1,rooftop,02139,City of Cambridge
Cambridge Spirits,Open,Delivery,9 Broad Canal,617-494-9000,NA,https://www.facebook.com/CambridgeSpirits/,https://twitter.com/cambridgespirit?lang=en,https://www.instagram.com/cambridgespirits/,2020-03-23T12:21:31Z,9 Broad Canal,42.363298,-71.082689,1,rooftop,02141,City of Cambridge
Cambridge Street Cleaners,Open,NA,506 Cambridge St,(617) 547-2536,NA,NA,NA,NA,2020-03-22T09:07:13Z,506 Cambridge St,42.371552,-71.084666,1,rooftop,02141,City of Cambridge
Cambridge Used Bicycles,Open,NA,201 Monsignor O'Brien Highwy,617-818-0920,https://www.cambridgeusedbicycles.com/,https://www.facebook.com/Cambridgeusedbicycles/,NA,NA,2020-03-25T10:18:58Z,201 Monsignor O'Brien Highwy,42.372405,-71.079131,0.33,place,02138,TIGER/Line® dataset from the US Census Bureau
Cambridge Veterinary Care,Open,NA,1724 Mass. Ave.,(617) 917-3639,https://cambridgevet.com/,https://www.facebook.com/cambridgeveterinarycare/?fref=ts,NA,NA,2020-03-22T20:36:54Z,1724 Massachusetts Ave,42.383994,-71.119679,1,rooftop,02138,City of Cambridge
Cambridge Wine and Spirits,Open,NA,202 Alewife Brook Pwky,(617) 864-7171,NA,NA,NA,NA,2020-04-07T22:14:16Z,202 Alewife Brook Pwky,42.388965,-71.141895,1,rooftop,02138,City of Cambridge
Cambridgeside Galleria,Closed,NA,Cambridge Galleria,NA,https://www.cambridgeside.com/event/Coronavirus-Update/2145541976/,https://www.facebook.com/CambridgeSide/,https://twitter.com/Cambridge_Side/,https://www.instagram.com/Cambridgeside/,2020-03-22T22:35:53Z,Cambridge Galleria,42.372866,-71.095128,1,street_center,02139,TIGER/Line® dataset from the US Census Bureau
Cantab Lounge,Closed,NA,738 Massachusetts Ave,NA,https://www.cantab-lounge.com/,NA,NA,NA,2020-03-23T14:14:50Z,738 Massachusetts Ave,42.366071,-71.10516,1,rooftop,02139,City of Cambridge
Capucine Montessori School,Closed,NA,2180 Mass Ave.,NA,NA,NA,NA,NA,2020-03-22T17:42:44Z,2180 Massachusetts Ave,42.392428,-71.12511,1,rooftop,02140,"Office of Geographic Information (MassGIS), Commonwealth of Massachusetts, MassIT"
Cardullo's,Open,"Delivery
Take Out",6 Brattle St.,(617) 491-8888,https://cardullos.com/,https://www.facebook.com/Cardullos/,NA,NA,2020-04-05T17:54:28Z,6 Brattle St.,42.373508,-71.119766,1,rooftop,02138,City of Cambridge
Casa Portugal,Closed,NA,1200 Cambridge Street,NA,http://www.restaurantcasaportugal.com/,https://www.facebook.com/casaportgalrestaurante/,NA,NA,2020-03-21T21:26:25Z,1200 Cambridge Street,42.373176,-71.09734,1,rooftop,02139,City of Cambridge
Catalyst Café,Closed,NA,75 Binney Street,857-259-6410,https://www.catalystcafecambridge.com/,NA,NA,https://www.instagram.com/catalyst_cafe/,2020-03-21T19:19:16Z,75 Binney Street,42.365788,-71.080507,1,rooftop,02141,City of Cambridge
Catalyst Restaurant,Closed,NA,300 Technology Square,617-576-3000,https://www.catalystrestaurant.com/,NA,NA,https://www.instagram.com/catalystrestaurant/?hl=en,2020-03-21T19:19:16Z,300 Technology Square,42.363417,-71.091772,1,rooftop,02139,City of Cambridge
Cava,Open,"Delivery
Take Out",82 Ames St,617-202-9396,https://cava.com/,https://www.facebook.com/cava/,https://twitter.com/cava?ref_src=twsrc%5Egoogle%7Ctwcamp%5Eserp%7Ctwgr%5Eauthor,https://www.instagram.com/cava/?hl=en,2020-03-23T12:21:31Z,82 Ames St,42.363312,-71.087597,1,rooftop,02142,"Office of Geographic Information (MassGIS), Commonwealth of Massachusetts, MassIT"
Cellar Wine and Spirits,Open,NA,991 Massachusetts Ave,(617) 547-3111,NA,NA,NA,NA,2020-03-22T21:32:52Z,991 Massachusetts Ave,42.369402,-71.111034,1,rooftop,02138,City of Cambridge
Central Bakery,Open,Take Out,732 Cambridge St,(617) 547-2237,NA,https://www.facebook.com/pages/category/Bakery/Central-Bakery-Inc-378815642144933/,NA,NA,2020-04-11T17:06:57Z,732 Cambridge St,42.372114,-71.089094,1,rooftop,02141,City of Cambridge
Central Barber Shop,Closed,NA,1611 Mass Ave.,(617) 354-3596,NA,NA,NA,NA,2020-03-22T21:14:04Z,1611 Massachusetts Ave,42.380202,-71.119709,1,rooftop,02138,City of Cambridge
Central Rock Gym,Closed,NA,127 Smith Place,NA,https://centralrockgym.com/cambridge/,NA,NA,NA,2020-03-22T13:29:38Z,127 Smith Place,42.393844,-71.150424,1,rooftop,02138,City of Cambridge
Central Square Eye Care,Open,NA,3 Central Sq.,(617) 497-2015,https://www.centralsquareeyecare.net/tablet/index.html,NA,NA,NA,2020-04-20T14:27:25Z,3 Central Sq.,42.365092,-71.104371,1,rooftop,02139,City of Cambridge
Central Square Florist,Closed,NA,653 Massachusetts Ave,NA,https://www.centralsquareflorist.com/,https://www.facebook.com/CentralSquareFlorist/,https://twitter.com/csflorist,https://www.instagram.com/centralsquareflorist/,2020-04-05T17:46:37Z,653 Massachusetts Ave,42.365603,-71.103732,1,rooftop,02139,City of Cambridge
Central Square Post Office,Open,NA,770 Massachusetts Ave,NA,https://www.postallocations.com/ma/cambridge/cambridge,NA,NA,NA,2020-03-22T10:31:00Z,770 Massachusetts Ave,42.366462,-71.105862,1,rooftop,02139,City of Cambridge
Central Square Theater,Closed,Online Sales,450 Massachusetts Ave,NA,https://www.centralsquaretheater.org/,https://www.facebook.com/CentralSquareTheater/,https://twitter.com/CentSqTheater,http://instagram.com/centralsqtheater,2020-03-23T12:21:31Z,450 Massachusetts Ave,42.363484,-71.101101,1,rooftop,02139,City of Cambridge
Chalawan,Open,"Delivery
Take Out",1790 Mass. Ave.,NA,https://thechalawan.com/,https://www.facebook.com/chalawan.boston,NA,https://www.instagram.com/chalawanboston/,2020-03-25T19:38:44Z,1790 Massachusetts Ave,42.385971,-71.119466,1,rooftop,02140,City of Cambridge
Chameleon Tatto & Body Piercing,Closed,NA,36 JFK St,NA,https://www.chameleonbodyarts.com/,NA,NA,NA,2020-03-23T15:23:43Z,36 JFK St,42.372747,-71.119871,1,rooftop,02138,City of Cambridge
Changsho,Closed,NA,1712 Mass. Ave,617.547.6565,http://changshorestaurant.com/,https://www.facebook.com/Changsho/,NA,NA,2020-04-19T11:24:37Z,1712 Massachusetts Ave,42.383524,-71.119732,1,rooftop,02138,City of Cambridge
Charles Hotel,Open,NA,1 Bennett St.,NA,https://www.charleshotel.com/,NA,NA,NA,2020-03-23T16:28:45Z,1 Bennett St.,42.371992,-71.122511,1,rooftop,02138,City of Cambridge
Charles River Canoe and Kayak,Closed,NA,15 Broad Canal Way,617-965-5110,https://paddleboston.com/,https://www.facebook.com/PaddleBoston/,https://twitter.com/PaddleBoston?ref_src=twsrc%5Egoogle%7Ctwcamp%5Eserp%7Ctwgr%5Eauthor,https://www.instagram.com/paddleboston/?hl=en,2020-03-21T19:19:16Z,15 Broad Canal Way,42.362886,-71.081997,1,rooftop,02139,City of Cambridge
Charlie's Kitchen,Open,"Delivery
Take Out",10 Eliot St.,617-492-9646,https://www.charlieskitchen.com/,NA,NA,NA,2020-03-23T12:21:31Z,10 Eliot St.,42.372474,-71.121576,1,rooftop,02138,City of Cambridge
Charlies Barber Shop,Closed,NA,1794 Mass. Ave.,NA,https://charliesbarbershopcam.com/,NA,NA,NA,2020-03-22T19:50:42Z,1794 Massachusetts Ave,42.386028,-71.119457,1,rooftop,02140,City of Cambridge
Cheapo Records,Closed,NA,538 Mass. Ave.,NA,http://www.cheaporecords.com/,https://www.facebook.com/CheapoRecs/,NA,NA,2020-03-27T10:54:44Z,538 Massachusetts Ave,42.36435,-71.102246,1,rooftop,02139,City of Cambridge
Chicago Pizza,Open,"Delivery
Take Out",239 Massachusetts Ave,(617) 603-3544,http://www.cambridgepizza.com/index.php,https://www.facebook.com/ChicagoPizzaCambridge,NA,NA,2020-03-23T12:21:31Z,239 Massachusetts Ave,42.36168,-71.097145,1,rooftop,02139,City of Cambridge
China Fair,Closed,NA,2100 Mass Ave,NA,http://www.chinafairinc.com/,NA,NA,NA,2020-03-22T17:22:34Z,2100 Massachusetts Ave,42.39154,-71.123845,1,rooftop,02140,City of Cambridge
Chiptole,Open,Delivery,All locations,NA,https://www.chipotle.com/,NA,NA,NA,2020-03-23T12:21:31Z,NA,NA,NA,NA,NA,NA,NA
Christina's Homemade Ice Cream,Open,Take Out,1255 Cambridge Street,617-492-7021,http://christinasicecream.com/,https://www.facebook.com/Christinas-Homemade-Ice-Cream-56606718473/,NA,NA,2020-03-23T12:21:31Z,1255 Cambridge Street,42.373507,-71.098376,1,rooftop,02139,City of Cambridge
Christina's Spice and Speciality Shop,Open,NA,1297 Cambridge Street,NA,NA,NA,NA,NA,2020-03-31T13:33:50Z,1297 Cambridge Street,42.373626,-71.099202,1,rooftop,02139,City of Cambridge
Christopher's,Closed,Online Sales,1920 Mass. Ave.,NA,https://christopherscambridge.com/,https://www.facebook.com/christophersrestaurantcambridge,https://twitter.com/TheChris1920,https://www.instagram.com/christopherscambridge/,2020-03-23T12:21:31Z,1920 Massachusetts Ave,42.389053,-71.119952,1,rooftop,02140,City of Cambridge
Chutney's,Open,"Delivery
Take Out",36 JFK St,617-491-2545,https://www.chutneyscambridge.com/,NA,NA,NA,2020-04-19T11:14:22Z,36 JFK St,42.372747,-71.119871,1,rooftop,02138,City of Cambridge
Cilantro Chinese Cuisine,Open,"Delivery
Take Out",1105 Mass. Ave.,(617) 945-1768,https://www.cilantrochinesecuisine.com/,NA,NA,NA,2020-04-19T11:14:22Z,1105 Massachusetts Ave,42.370652,-71.11342,1,rooftop,02138,City of Cambridge
Circle Furniture,Closed,Online Sales,199 Alewife Brook Parkway,NA,https://www.circlefurniture.com/,NA,NA,NA,2020-03-23T12:21:31Z,199 Alewife Brook Parkway,42.390145,-71.142729,1,rooftop,02138,City of Cambridge
City Express,Closed,NA,1695 Massachusetts Ave.,NA,NA,NA,NA,NA,2020-04-10T07:51:33Z,1695 Massachusetts Ave.,42.382942,-71.119418,1,rooftop,02138,City of Cambridge
City Express Dry Cleaners,Open,NA,428 Massachusetts Ave,(617) 354-9658,NA,NA,NA,NA,2020-03-22T11:59:14Z,428 Massachusetts Ave,42.363443,-71.100727,1,rooftop,02139,City of Cambridge
City Liquors,Open,NA,616 Cambridge St,(617) 945-0095,https://www.facebook.com/pages/City-Liquors/401080673395829,NA,https://twitter.com/CityLiquorsMA,NA,2020-03-22T09:07:13Z,616 Cambridge St,42.371794,-71.08656,1,rooftop,02141,City of Cambridge
City Market,Closed,NA,1695 Mass. Ave.,(617) 492-9600,NA,NA,NA,NA,2020-04-11T17:10:05Z,1695 Massachusetts Ave,42.382942,-71.119418,1,rooftop,02138,City of Cambridge
City Paint,Open,NA,1149 Cambridge Street,617.547.0050,https://www.city-paint.com/,https://www.facebook.com/citypaintandsupply,NA,NA,2020-03-21T21:40:19Z,1149 Cambridge Street,42.373241,-71.096306,1,rooftop,02139,City of Cambridge
City Paint & Supply,Open,NA,2564 Mass Ave.,(617) 547-7290,https://city-paint.com/,https://www.facebook.com/citypaintandsupply,NA,NA,2020-03-22T17:42:44Z,2564 Massachusetts Ave,42.400124,-71.134534,1,rooftop,02140,City of Cambridge
City Smoke Shop,Closed,NA,NA,(857) 500-3027,NA,NA,NA,NA,2020-03-23T14:31:13Z,NA,NA,NA,NA,NA,NA,NA
Classic Graphx,Open,"Delivery
Take Out",678 Massachusetts Ave,postbox@classicgraphx.com,https://www.classicgraphx.com/,NA,NA,NA,2020-04-10T09:37:17Z,678 Massachusetts Ave,42.365637,-71.10443,1,rooftop,02139,City of Cambridge
Cleenland,Open,NA,89A Norfolk St.,857-228-4595,https://www.cleenland.com/,https://www.facebook.com/cleenland,NA,https://www.instagram.com/cleenland/,2020-03-29T16:39:40Z,89A Norfolk St.,42.366401,-71.100591,0.9,rooftop,02139,City of Cambridge
Clevergreen Cleaners,Open,NA,314 Third Street,617-225-2061,http://www.clevergreencleaners.com/portfolio/clevergreen-cleaners-kendall-square/,https://www.facebook.com/clevergreencleaners/,https://twitter.com/clevergreenma?lang=en,https://www.instagram.com/clevergreencleaners/,2020-03-21T19:19:16Z,314 Third Street,42.364987,-71.082666,1,rooftop,02141,City of Cambridge
Clipmates Hair Studio,Closed,NA,141 Hampshire Street,NA,https://www.clipmateshairstudio.com/?fbclid=IwAR0-2ipMyCjfqLvn-OV08i6M7d87tMDKUgrJIzFElJqCcyetzv1gbJvAwKU,https://www.facebook.com/clipmateshairstudio/?ref=py_c,NA,https://www.instagram.com/clipmateshairstudio/,2020-03-21T21:14:56Z,141 Hampshire Street,42.371029,-71.097108,1,rooftop,02139,City of Cambridge
Clothware,Closed,NA,1773 Mass. Ave.,NA,http://www.clothware.com/,https://www.facebook.com/Clothware,NA,NA,2020-03-22T20:10:30Z,1773 Massachusetts Ave,42.385494,-71.119113,1,rooftop,02140,City of Cambridge
Clover - Central,Closed,NA,496 Mass. Ave,NA,NA,NA,NA,NA,2020-03-21T19:19:16Z,496 Massachusetts Ave,42.364005,-71.101651,1,rooftop,02139,City of Cambridge
Clover - Harvard,Closed,NA,1326 Mass. Ave.,NA,NA,NA,NA,NA,2020-03-21T19:19:16Z,1326 Massachusetts Ave,42.37299,-71.117865,1,rooftop,02138,City of Cambridge
Clover - HQ,Closed,NA,1075 Cambridge St,NA,NA,NA,NA,NA,2020-03-21T19:19:16Z,1075 Cambridge St,42.373091,-71.095179,1,rooftop,02139,City of Cambridge
Clover - Kendall,Closed,NA,5 Cambridge Center,NA,https://www.cloverfoodlab.com/,https://www.facebook.com/cloverfoodlab/,https://twitter.com/cloverfoodlab?ref_src=twsrc%5Egoogle%7Ctwcamp%5Eserp%7Ctwgr%5Eauthor,https://www.instagram.com/cloverfoodlab/?hl=en,2020-03-21T19:19:16Z,5 Cambridge Center,42.362839,-71.087465,1,rooftop,02142,"Office of Geographic Information (MassGIS), Commonwealth of Massachusetts, MassIT"
Club Passim,Closed,Online Sales,47 Palmer St,NA,https://www.passim.org/,https://www.facebook.com/clubpassim,https://twitter.com/clubpassim,https://www.instagram.com/clubpassim/,2020-03-23T15:07:17Z,47 Palmer St,42.374298,-71.120078,1,rooftop,02138,City of Cambridge
Coast Cafe,Open,"Delivery
Take Out",233 River Street,NA,http://www.coastsoulcafe.com/,https://www.facebook.com/thecoastcafe/,NA,NA,2020-03-23T12:21:31Z,233 River Street,42.363012,-71.111597,1,rooftop,02139,City of Cambridge
Colette,Closed,Online Sales,1924 Mass. Ave.,NA,https://colette1924.com/,https://www.facebook.com/colette1924/,NA,https://www.instagram.com/colette1924/,2020-03-23T12:21:31Z,1924 Massachusetts Ave,42.389356,-71.120246,1,rooftop,02140,City of Cambridge
Columbia Market,Open,NA,151 Columbia St.,(617) 945-9655,NA,NA,NA,NA,2020-04-23T12:06:50Z,151 Columbia St.,42.366959,-71.097986,1,rooftop,02139,City of Cambridge
Commonwealth Cambridge,Closed,Online Sales,11 Broad Canal Way,NA,http://commonwealthcambridge.com/,NA,NA,NA,2020-03-23T12:21:31Z,11 Broad Canal Way,42.363273,-71.082565,1,rooftop,02141,City of Cambridge
Coolidge Cleaners,Open,NA,746 Massachusetts Ave.,(617) 354-8808,NA,NA,NA,NA,2020-03-22T10:50:32Z,746 Massachusetts Ave.,42.366139,-71.105275,1,rooftop,02139,City of Cambridge
Corbu Spa and Salon,Closed,NA,1 Bennett St.,NA,https://www.corbuspa.com/,NA,NA,NA,2020-03-23T16:35:27Z,1 Bennett St.,42.371992,-71.122511,1,rooftop,02138,City of Cambridge
Corozon de Frida Mexican Cantina,Open,"Delivery
Take Out",1287 Cambridge Street,617- 714-3874,https://corazondefridacantina.com/?fbclid=IwAR1IpgVJ8Qe82N8LJnEcfgPmLmM9KiM_kP9h8_25APBhl_XgOSYbc8bBX4Q,https://www.facebook.com/CorazonDeFridaCantina/,NA,NA,2020-03-23T12:21:31Z,1287 Cambridge Street,42.373589,-71.098943,1,rooftop,02139,City of Cambridge
Court Cleaners,Closed,NA,247 Cambridge St,(617) 252-0922,NA,NA,NA,NA,2020-04-11T17:21:17Z,247 Cambridge St,42.371166,-71.080122,1,rooftop,02141,City of Cambridge
Courthouse Fish Market,Closed,NA,494A Cambridge St,617-876-6716,http://www.courthouseseafood.com/,NA,NA,NA,2020-04-11T17:21:17Z,494A Cambridge St,42.371529,-71.084489,0.9,rooftop,02141,City of Cambridge
Courthouse Seafood Restaurant,Closed,NA,498 Cambridge St,617-491-1213,http://www.courthouseseafood.com/,NA,NA,NA,2020-04-11T17:21:17Z,498 Cambridge St,42.371538,-71.084578,1,rooftop,02141,City of Cambridge
Craigie on Main,Open,Take Out,853 Main St,(617) 497-5511,https://www.craigieonmain.com/,NA,https://twitter.com/craigieonmain?ref_src=twsrc%5Egoogle%7Ctwcamp%5Eserp%7Ctwgr%5Eauthor,https://www.instagram.com/craigieonmain/?hl=en,2020-03-23T12:21:31Z,853 Main St,42.36346,-71.09866,1,rooftop,02139,City of Cambridge
Creat Escape Too,Closed,NA,368 Huron Ave.,617-354-9009,http://www.crate-escape.com/,https://www.facebook.com/CrateEscape2/,NA,NA,2020-03-22T08:35:26Z,368 Huron Ave.,42.381032,-71.139,1,rooftop,02138,City of Cambridge
Crimson Bikes,Open,Online Sales,1001 Massachusetts Ave,617-958-1727,https://www.crimsonbikes.com/,https://www.facebook.com/CrimsonBikes,https://twitter.com/CrimsonBikes,https://www.instagram.com/crimsonbikes/,2020-03-23T14:31:13Z,1001 Massachusetts Ave,42.369487,-71.111341,1,rooftop,02138,City of Cambridge
Crimson Corner,Closed,Online Sales,35 Brattle St,NA,https://crimsoncornerharvardsquare.com/,NA,NA,NA,2020-03-23T14:39:21Z,35 Brattle St,42.373564,-71.120963,1,rooftop,02138,City of Cambridge
Cuchi Cuchi,Closed,NA,795 Main St,NA,https://cuchicuchi.cc/,https://www.facebook.com/CuchiCuchiRestaurant/,NA,NA,2020-03-22T12:03:40Z,795 Main St,42.363346,-71.097131,1,rooftop,02139,City of Cambridge
Culture House - Harvard,Closed,NA,0 Harvard Square,NA,https://culturehouse.cc/,https://www.facebook.com/culturehousebos/,https://twitter.com/culturehousebos?ref_src=twsrc%5Egoogle%7Ctwcamp%5Eserp%7Ctwgr%5Eauthor,https://www.instagram.com/culturehousebos/?hl=en,2020-03-21T19:19:16Z,0 Harvard Square,42.373506,-71.119272,0.33,place,02138,TIGER/Line® dataset from the US Census Bureau
Culture House Kendall,Closed,NA,501 Kendall St.,NA,https://culturehouse.cc/,https://www.facebook.com/culturehousebos/,https://twitter.com/culturehousebos?ref_src=twsrc%5Egoogle%7Ctwcamp%5Eserp%7Ctwgr%5Eauthor,https://www.instagram.com/culturehousebos/?hl=en,2020-03-21T19:19:16Z,501 Kendall St.,42.363962,-71.081698,0.72,nearest_rooftop_match,02142,City of Cambridge
Curio Coffee and Wine,Open,Take Out,441 Cambridge St,(857) 242-3018,NA,https://www.facebook.com/curiocoffee/,NA,https://www.instagram.com/curiocoffee/?hl=en,2020-03-23T12:21:31Z,441 Cambridge St,42.371604,-71.083603,1,rooftop,02141,City of Cambridge
Curio Spice,Closed,Online Sales,2265 Mass. Ave.,NA,https://www.curiospice.com/,https://www.facebook.com/curiospice/?fref=ts,NA,https://www.instagram.com/curiospice/?hl=en,2020-03-23T12:21:31Z,2265 Massachusetts Ave,42.394424,-71.126715,1,range_interpolation,02140,TIGER/Line® dataset from the US Census Bureau
Custom Barber Shop,Closed,NA,NA,NA,NA,NA,NA,NA,2020-03-22T21:21:09Z,NA,NA,NA,NA,NA,NA,NA
Custom Eyes,Closed,NA,50 Prospect St,NA,https://customeyescorp.net/,NA,NA,NA,2020-04-05T17:54:28Z,50 Prospect St,42.366243,-71.103146,1,rooftop,02139,City of Cambridge
CVS,Open,NA,225 Cambridge St,NA,https://www.cvs.com/store-locator/cvs-pharmacy-address/225+Cambridge+Street-Cambridge-MA-02141/storeid=10891,NA,NA,NA,2020-03-21T21:57:54Z,225 Cambridge St,42.371105,-71.079675,1,rooftop,02141,City of Cambridge
CW Taekwondo at Boston,Closed,Online Sales,285 Green St,NA,https://www.cwtkd.com/,https://www.facebook.com/CWTaekwondoBoston,NA,https://www.instagram.com/cwtaekwondo,2020-03-29T14:12:15Z,285 Green St,42.365014,-71.104267,1,range_interpolation,02139,TIGER/Line® dataset from the US Census Bureau
CWK at Kendall,Closed,NA,300B Athenaeum Street,NA,http://www.commonwealthkitchen.org/cwk-at-kendall,NA,NA,NA,2020-03-21T19:19:16Z,300B Athenaeum Street,42.364351,-71.081484,0.9,rooftop,02142,City of Cambridge
Dado Tea,Open,Take Out,955 Mass Ave. only,NA,http://www.dadotea.com/,NA,NA,NA,2020-03-27T10:39:15Z,955 Massachusetts Ave only,42.369028,-71.109926,1,rooftop,02139,City of Cambridge
Daedalus,Closed,NA,45.5 My. Auburn St,NA,https://www.daedalusrestaurantcambridge.com/,https://www.facebook.com/daedalusrestaurant/,NA,https://www.instagram.com/daedaluscambridge/,2020-03-23T08:55:19Z,45.5 Mount Auburn St,42.371252,-71.116585,0.33,place,02138,TIGER/Line® dataset from the US Census Bureau
Dana Hill Liquors,Open,Delivery,910 Mass. Ave.,617-547-6199,NA,https://www.facebook.com/danahillliquormart/?rf=153717621308263,https://twitter.com/danahillliquors?lang=en,NA,2020-03-23T12:21:31Z,910 Massachusetts Ave,42.368282,-71.108784,1,rooftop,02139,City of Cambridge
Dance Complex,Closed,Online Sales,536 Massachusetts Ave.,NA,https://www.dancecomplex.org/,NA,NA,NA,2020-04-08T09:45:23Z,536 Massachusetts Ave.,42.364318,-71.102196,1,rooftop,02139,City of Cambridge
Daniel R. Spirer Jewelers,Closed,Online Sales,1780 Mass. Ave.,(617) 234-4392,https://spirerjewelers.com/,NA,NA,NA,2020-04-11T10:02:32Z,1780 Massachusetts Ave,42.385814,-71.119481,1,rooftop,02140,City of Cambridge
Dante,Closed,Online Sales,40 Edwin Land Blvd,NA,https://restaurantdante.com/,NA,NA,https://www.instagram.com/restaurant_dante/,2020-03-23T12:21:31Z,40 Edwin Land Blvd,42.366789,-71.075076,0.33,place,02138,TIGER/Line® dataset from the US Census Bureau
Darul Kabab,Open,"Delivery
Take Out",2072 Mass Ave,(617) 354-4010,http://www.darulkabab.com/,NA,NA,NA,2020-04-05T18:05:03Z,2072 Massachusetts Ave,42.39118,-71.123205,1,rooftop,02140,City of Cambridge
Darwin's Ltd.,Open,"Delivery
Take Out",All locations,NA,https://www.darwinsltd.com/,https://www.facebook.com/darwinsltd1,NA,https://www.instagram.com/darwinsltd/,2020-03-23T12:21:31Z,NA,NA,NA,NA,NA,NA,NA
David's Shoes on First,Closed,NA,75 First Street,(617) 354-3730,NA,https://www.facebook.com/DavidsShoesOnFirst/,NA,NA,2020-04-05T18:05:03Z,75 First Street,42.368378,-71.077582,1,rooftop,02141,City of Cambridge
Dazzling Nail Care,Closed,NA,2327 Mass. Ave.,(617) 661-4734,http://www.dazzlingnailcambridge.com/,NA,NA,NA,2020-03-22T18:43:40Z,2327 Massachusetts Ave,42.395908,-71.128316,1,rooftop,02140,City of Cambridge
Desfina Restaurant,Open,"Delivery
Take Out",202 Third Street,617-868-9098,https://desfina-restaurant.mxstorefront.com/,https://www.facebook.com/pages/category/Greek-Restaurant/Desfina-Restaurant-1553362881378769/,NA,NA,2020-03-23T12:21:31Z,202 Third Street,42.367592,-71.08107,1,rooftop,02141,City of Cambridge
Desi Dhaba,Open,"Delivery
Take Out",401 Massachusetts Ave.,(617) 547-4121,https://www.cambridgedesidhaba.net/,NA,NA,NA,2020-03-23T12:21:31Z,401 Massachusetts Ave.,42.363572,-71.099948,1,rooftop,02139,City of Cambridge
Diaper Lab,Open,"Online Sales
Take Out",200 Elm Street North,617) 764-0192,www.diaperlab.com,NA,NA,NA,2020-04-20T16:33:58Z,200 Elm Street North,42.393354,-71.12074,1,range_interpolation,02140,TIGER/Line® dataset from the US Census Bureau
Dickson Brothers True Value,Open,NA,26 Brattle St,(617) 876-6760,http://dicksonbros.com/,https://www.facebook.com/DicksonBrothers/,NA,NA,2020-03-23T08:59:51Z,26 Brattle St,42.373212,-71.12044,1,rooftop,02138,City of Cambridge
Dig,Open,Delivery,82 Mt. Auburn St,617-904-4340,https://www.diginn.com/,NA,NA,NA,2020-03-23T12:21:31Z,82 Mt. Auburn St,42.372258,-71.119537,1,rooftop,02138,City of Cambridge
Dimi's Place,Open,Take Out,272 Brookline St.,NA,http://dimisplace.com/,NA,NA,NA,2020-04-19T11:17:21Z,272 Brookline St.,42.357391,-71.107873,1,rooftop,02139,City of Cambridge
Domino's Pizza,Open,"Delivery
Online Sales
Take Out",1033 Massachusetts Ave.,617-441-2101,www.dominos.com,NA,NA,NA,2020-03-31T13:35:41Z,1033 Massachusetts Ave.,42.369706,-71.11193,1,rooftop,02138,City of Cambridge
Dosa Factory,Open,"Delivery
Take Out",571 Massachusetts Ave.,NA,http://www.dosa-factory.com/,https://www.facebook.com/DosaFactory/,NA,NA,2020-03-23T12:21:31Z,571 Massachusetts Ave.,42.364878,-71.102516,1,rooftop,02139,City of Cambridge
Down Under School Yoga,Closed,NA,2000 Mass. Ave.,NA,https://www.downunderyoga.com/cambridge-yoga-studio,https://www.facebook.com/DownUnderYoga/?ref=hl,NA,https://www.instagram.com/downunderyoga/,2020-03-22T17:08:33Z,2000 Massachusetts Ave,42.390347,-71.121412,1,rooftop,02140,City of Cambridge
Dress Code Cleaners,Closed,NA,276 Broadway,(617) 876-5636,NA,NA,NA,NA,2020-04-23T12:06:50Z,276 Broadway,42.367868,-71.097592,1,rooftop,02139,City of Cambridge
Drinkwater's,Closed,NA,2067 Mass. Ave.,617.547.2067,https://drinkwaterscambridge.com/,https://www.facebook.com/groups/Drinkwaters/about/,https://twitter.com/GaryDrinkwater,https://www.instagram.com/drinkwaterscambridge/?hl=en,2020-04-05T18:05:03Z,2067 Massachusetts Ave,42.391478,-71.123102,1,rooftop,02140,City of Cambridge
Druid,Closed,NA,1357 Cambridge Street,NA,https://www.druidpub.com/,https://www.facebook.com/TheDruidCambridge/,NA,https://www.instagram.com/druidpubcambridge/,2020-03-23T14:14:50Z,1357 Cambridge Street,42.373746,-71.100144,1,rooftop,02139,City of Cambridge
Dudley 1 Hour Dry Cleaners,Open,NA,2370 Mass. Ave.,(617) 576-1899,NA,NA,NA,NA,2020-03-22T18:35:12Z,2370 Massachusetts Ave,42.396557,-71.129601,1,range_interpolation,02140,TIGER/Line® dataset from the US Census Bureau
Dumpling Daughter,Closed,NA,73 Ames Street,617-557-8886,https://www.dumplingdaughter.com/,https://www.facebook.com/dumplingdaughter/,https://twitter.com/ddaughterboston?lang=en,https://www.instagram.com/dumplingdaughter/,2020-03-21T19:29:51Z,73 Ames Street,42.363315,-71.088151,1,rooftop,02142,City of Cambridge
Dumpling House,Open,"Delivery
Take Out",950 Massachusetts Ave,(617) 661-8066,https://www.dumplinghousecambridgema.com/,NA,NA,NA,2020-04-05T18:05:03Z,950 Massachusetts Ave,42.36861,-71.110146,1,rooftop,02139,City of Cambridge
Dunkin Donuts,Open,Take Out,One Broadway,617-945-9627,https://www.dunkindonuts.com/en,NA,NA,NA,2020-03-23T12:24:04Z,One Broadway,42.380442,-71.132947,1,place,02138,TIGER/Line® dataset from the US Census Bureau
Dunkin Donuts,Open,Take Out,222 Broadway,617-868-0259,https://www.dunkindonuts.com/en,NA,NA,NA,2020-03-23T12:24:04Z,222 Broadway,42.366463,-71.094031,1,rooftop,02139,City of Cambridge
Dunkin Donuts,Closed,NA,Porter Square Shopping Mall,(617) 354-8336,https://www.dunkindonuts.com/en/locations,NA,NA,NA,2020-04-11T16:41:27Z,Porter Square Shopping Mall,42.38891,-71.119316,1,street_center,02140,TIGER/Line® dataset from the US Census Bureau
Dunkin Donuts,Open,Take Out,2480 Mass. Ave.,NA,https://www.dunkindonuts.com/en/locations?location=02140,NA,NA,NA,2020-03-23T12:24:04Z,2480 Massachusetts Ave,42.398662,-71.132025,1,rooftop,02140,City of Cambridge
Dunkin Donuts,Open,Take Out,616 Mass Ave.,NA,https://www.dunkindonuts.com/en/locations,NA,NA,NA,2020-03-23T12:29:51Z,616 Massachusetts Ave,42.365001,-71.103349,1,rooftop,02139,City of Cambridge
Dunkin Donuts,Open,Take Out,1001 Mass. Ave.,(617) 714-4242,https://www.dunkindonuts.com/en/locations,NA,NA,NA,2020-03-23T12:29:51Z,1001 Massachusetts Ave,42.369487,-71.111341,1,rooftop,02138,City of Cambridge
East Coast Barber Shop,Closed,NA,261 Cambridge St,NA,http://www.eastcoastbarbershop.com/,https://www.facebook.com/EastCoast-Barbershop-447073771969643/,NA,NA,2020-03-22T09:16:22Z,261 Cambridge St,42.371188,-71.080296,1,rooftop,02141,City of Cambridge
East Side Bar and Grille,Closed,NA,561 Cambridge St,(617) 661-3278,https://www.eastsidebarandgrille.com/,https://www.facebook.com/EastSideBarAndGrille/,NA,NA,2020-04-05T18:05:03Z,561 Cambridge St,42.371852,-71.085573,1,rooftop,02141,City of Cambridge
Easy Chairs Antiques,Closed,NA,375 Huron Ave.,(617) 491-2131,http://leejosephauctions.com/,NA,NA,NA,2020-04-07T20:04:22Z,375 Huron Ave.,42.381233,-71.139009,1,rooftop,02138,City of Cambridge
ED Simmons/All State Insurance Agency/Cambridgeport Insurance Agency,Open,NA,PO Box 390148,617-491-0872,NA,NA,NA,NA,2020-04-09T15:22:46Z,PO Box 390148,42.380442,-71.132947,1,place,02138,TIGER/Line® dataset from the US Census Bureau
EH Chocolatier,Closed,"Delivery
Online Sales",145 Huron Ave,617.284.6096,https://www.ehchocolatier.com/,https://www.facebook.com/EHChocolatier,https://twitter.com/EHChocolatier,https://www.instagram.com/ehchocolatier/,2020-03-30T18:40:36Z,145 Huron Ave,42.382775,-71.130702,1,rooftop,02138,City of Cambridge
El Jefe's Taqueria,Open,"Delivery
Take Out",83 Mt. Auburn St,617.945.1986,https://www.eljefestaqueria.com/,NA,NA,NA,2020-03-23T12:29:51Z,83 Mt. Auburn St,42.372497,-71.119736,1,rooftop,02138,City of Cambridge
Elegant Tailor & Cleaners,Open,NA,1687 Mass. Ave,(617) 547-3804,NA,NA,NA,NA,2020-03-22T20:58:54Z,1687 Massachusetts Ave,42.382765,-71.119437,1,rooftop,02138,City of Cambridge
Elia's Hair Care,Closed,NA,319 Massachusetts Ave,(617) 497-1590,NA,NA,NA,NA,2020-03-22T12:16:14Z,319 Massachusetts Ave,42.362489,-71.098521,1,rooftop,02139,City of Cambridge
Eliot Street Cafe/Dunkin Donuts,Open,"Take Out
Yes",65 JFK St.,NA,https://www.harvardsquare.com/venue/eliot-st-cafe-dunkin-donuts-2/,NA,NA,NA,2020-03-23T12:29:51Z,65 JFK St.,42.371686,-71.121059,1,rooftop,02138,City of Cambridge
Elite Barbershop,Closed,NA,2384 Mass. Ave.,NA,https://website-7435912308091098863-barbershop.business.site/?utm_source=gmb&utm_medium=referral,https://www.facebook.com/pages/category/Barber-Shop/Elite-Barbershop-148190978571481/,NA,NA,2020-03-22T18:19:07Z,2384 Massachusetts Ave,42.396885,-71.129896,1,rooftop,02140,City of Cambridge
Elmendorf Baking Supplies and Café,Open,"Delivery
Take Out",594 Cambridge St,​617-945-0045,http://www.elmendorfbaking.com/,https://www.facebook.com/elmendorfsupplies,NA,https://www.instagram.com/elmendorfbaking/,2020-04-10T08:51:20Z,594 Cambridge St,42.371758,-71.086286,1,rooftop,02141,City of Cambridge
Emack & Bolio's,Closed,NA,Porter Square Shopping Mall,NA,https://emackandbolios.com/,NA,NA,NA,2020-03-22T16:25:55Z,Porter Square Shopping Mall,42.38891,-71.119316,1,street_center,02140,TIGER/Line® dataset from the US Census Bureau
Esmeralda,Closed,Online Sales,54 Church St.,(617) 661-0900,https://www.esmeraldastore.com/,NA,NA,NA,2020-03-23T12:29:51Z,54 Church St.,42.37411,-71.120907,1,rooftop,02138,City of Cambridge
Estetika Spa,Closed,NA,370 Huron Ave.,617-864-0401,http://www.estetikaspa.com/,NA,NA,NA,2020-03-21T22:32:14Z,370 Huron Ave.,42.381006,-71.139136,1,rooftop,02138,City of Cambridge
Euphoria Babershop,Closed,NA,766B Cambridge St,(617) 945-1137,https://www.euphoriabarbers.com/,https://www.facebook.com/euphoriabarbers/,NA,NA,2020-03-22T09:16:22Z,766B Cambridge St,42.372176,-71.089561,0.9,rooftop,02141,City of Cambridge
European Wax Center,Closed,NA,1868 Mass. Ave.,NA,https://www.waxcenter.com/ma-cambridge-porter-square,NA,NA,NA,2020-03-22T16:25:55Z,1868 Massachusetts Ave,42.388084,-71.119575,1,rooftop,02140,City of Cambridge
Evolve Fitness,Closed,NA,52 New Street,NA,https://evolvefitnessinc.com/,NA,NA,NA,2020-03-22T13:02:11Z,52 New Street,42.387969,-71.139936,1,rooftop,02138,City of Cambridge
EVOO,Closed,NA,350 Third Street,617-661-3866,https://evoorestaurant.com/,https://www.facebook.com/evoocambridge/,https://twitter.com/EVOOrestaurant,NA,2020-03-21T19:29:51Z,350 Third Street,42.363684,-71.083354,1,rooftop,02141,City of Cambridge
Eye Q,Closed,NA,12 Eliot St.,NA,http://www.eye-q-optical.com/,https://www.facebook.com/EyeQOpticalBoston,NA,https://www.instagram.com/eye_q_optical/,2020-03-23T16:28:45Z,12 Eliot St.,42.372361,-71.121618,1,rooftop,02138,City of Cambridge
Falafel Corner,Open,"Delivery
Take Out",8 Eliot St.,NA,https://www.falafelcornerboston.com/,NA,NA,NA,2020-03-23T16:12:37Z,8 Eliot St.,42.372581,-71.12151,1,rooftop,02138,City of Cambridge
Family Nail and Spa,Closed,NA,746 Cambridge St,(617) 945-1515,NA,https://www.facebook.com/pages/category/Nail-Salon/Family-NAILS-SPA-1625914291013733/,NA,NA,2020-03-22T09:16:22Z,746 Cambridge St,42.372148,-71.089349,1,rooftop,02141,City of Cambridge
Famous Cutz,Closed,NA,444 Cambridge St,NA,NA,https://www.facebook.com/pages/Famous-Cuts/124247000956372,NA,NA,2020-03-21T21:57:54Z,444 Cambridge St,42.371422,-71.083654,1,rooftop,02141,City of Cambridge
Faron Salon,Closed,NA,1784 Mass. Ave.,NA,NA,NA,NA,NA,2020-03-22T19:59:33Z,1784 Massachusetts Ave,42.385911,-71.119471,1,rooftop,02140,City of Cambridge
Fast Phil's Haircuts,Closed,NA,2528 Mass Ave.,(617) 354-4666,NA,https://www.facebook.com/Fast-Phils-149963918362407/,NA,NA,2020-03-22T17:47:01Z,2528 Massachusetts Ave,42.399605,-71.133405,1,rooftop,02140,City of Cambridge
Felipe's Taqueria,Open,"Delivery
Take Out",21 Brattle St.,(617) 354-9944,https://www.felipestaqueria.com/locations/cambridge/,NA,NA,NA,2020-03-23T12:29:51Z,21 Brattle St.,42.373454,-71.120491,1,rooftop,02138,City of Cambridge
Felix Shoe Repair,Closed,NA,1304 Mass Ave,NA,NA,NA,NA,NA,2020-03-23T14:31:13Z,1304 Massachusetts Ave,42.372857,-71.117368,1,rooftop,02138,City of Cambridge
Fernandes Market,Open,NA,875 Cambridge St,(617) 492-5270,NA,https://www.facebook.com/pages/category/Convenience-Store/Pires-Market-428836680554382/,NA,NA,2020-04-05T18:11:39Z,875 Cambridge St,42.372612,-71.091413,1,rooftop,02141,City of Cambridge
Ferro's Foodtown,Open,NA,NA,(617) 354-2620,NA,NA,NA,NA,2020-03-22T13:55:56Z,NA,NA,NA,NA,NA,NA,NA
Field Pub,Closed,NA,20 Prospect St,NA,NA,https://www.facebook.com/pages/category/Irish-Restaurant/The-Field-Pub-489870384393810/,NA,NA,2020-03-23T14:14:50Z,20 Prospect St,42.365861,-71.103554,1,rooftop,02139,City of Cambridge
Filomena's Beauty and Hair Salon,Closed,NA,164 Hampshire Street,617-492-2055,http://filomenasbeautysalon.com/,NA,NA,NA,2020-03-21T21:01:51Z,164 Hampshire Street,42.371801,-71.098652,1,rooftop,02139,City of Cambridge
First United Market,Open,NA,271 Brookline St.,(617) 876-5673,NA,NA,NA,NA,2020-04-21T07:57:40Z,271 Brookline St.,42.357469,-71.108052,1,rooftop,02139,City of Cambridge
Fitlab Pilates,Closed,Online Sales,1305 Cambridge Street,NA,https://www.fitlabpilates.com/,https://www.facebook.com/FitLabPilates,NA,https://www.instagram.com/fitlabpilates/,2020-03-23T12:29:51Z,1305 Cambridge Street,42.373641,-71.099374,1,rooftop,02139,City of Cambridge
Five Doors Health and Wellness,Closed,Online Sales,763 Massachusetts Ave.,NA,https://www.fivedoorsyoga.com/,https://www.facebook.com/fivedoorshw,NA,https://www.instagram.com/fivedoorshw/,2020-03-23T12:29:51Z,763 Massachusetts Ave.,42.36662,-71.105435,1,rooftop,02139,City of Cambridge
Five Spices House,Open,"Delivery
Take Out",546 Massachusetts Ave,NA,http://www.5spiceshouse.com/,NA,NA,NA,2020-03-23T12:29:51Z,546 Massachusetts Ave,42.36438,-71.102296,1,rooftop,02139,City of Cambridge
Flame Hot Pot and Sushi,Open,"Delivery
Take Out",1001 Massachusetts Ave,617-945-0080,https://flamecambridge.com/,NA,NA,NA,2020-04-05T18:05:03Z,1001 Massachusetts Ave,42.369487,-71.111341,1,rooftop,02138,City of Cambridge
Flat Top Johnny's,Closed,NA,One Kendall Square,617-494-9565,http://www.flattopjohnnys.com/,https://www.facebook.com/FlatTopJohnnys,https://twitter.com/FlatTopJohnnys,http://instagram.com/flattopjohnnys,2020-03-21T19:29:51Z,One Kendall Square,42.366971,-71.090615,0.33,place,02138,TIGER/Line® dataset from the US Census Bureau
Flour Bakery,Closed,Online Sales,All locations,NA,https://flourbakery.com/update/,NA,NA,https://www.instagram.com/flourbakeryandcafe/?hl=en,2020-03-23T12:29:51Z,NA,NA,NA,NA,NA,NA,NA
Floyd's Barber Shop,Closed,NA,1672 Mass. Ave.,NA,https://www.floydsbarbershop.com/cambridge/,NA,NA,NA,2020-03-22T21:09:29Z,1672 Massachusetts Ave,42.382143,-71.119878,1,rooftop,02138,City of Cambridge
Follow the Honey,Closed,Online Sales,1132 Massachusetts Ave,617-945-7356,https://www.followthehoney.com/,https://www.facebook.com/FollowTheHoney/,https://twitter.com/followthehoney,https://www.instagram.com/followthehoney/,2020-03-23T14:31:13Z,1132 Massachusetts Ave,42.37087,-71.114145,1,rooftop,02138,City of Cambridge
FoodLand,Open,NA,2234 Mass. Ave.,NA,https://foodland-indian-grocery-store.business.site/,NA,NA,NA,2020-03-22T16:15:36Z,2234 Massachusetts Ave,42.393827,-71.126469,1,rooftop,02140,City of Cambridge
Foot Heaven,Closed,NA,875 Main St,NA,https://footheaven.us/,NA,NA,NA,2020-03-21T22:32:14Z,875 Main St,42.363485,-71.098957,1,rooftop,02139,City of Cambridge
Forage,Open,"Delivery
Take Out",5 Craigie Circle,617-576-5444,https://foragecambridge.com/,https://www.facebook.com/pg/foragecambridge/about/?tab=overview,https://twitter.com/foragecambridge,https://www.instagram.com/foragecambridge/,2020-03-23T12:29:51Z,5 Craigie Circle,42.379212,-71.127052,1,rooftop,02138,City of Cambridge
Formaggio Kendall,Open,"Delivery
Take Out",94 Hampshire Street,617-714-5758,https://www.formaggiokitchen.com/kendall,NA,NA,https://www.instagram.com/formaggiokendall/,2020-03-23T12:29:51Z,94 Hampshire Street,42.368895,-71.095148,1,rooftop,02139,City of Cambridge
Formaggio Kitchen,Open,"Delivery
Take Out",244 Huron Ave,617-354-4750.,https://www.formaggiokitchen.com/,https://www.facebook.com/formaggiokitchen,https://twitter.com/formaggio,https://www.instagram.com/formaggiokitchen/,2020-03-29T14:12:15Z,244 Huron Ave,42.381396,-71.133764,1,rooftop,02138,City of Cambridge
Forty Winks,Closed,Online Sales,56 JFK St.,NA,https://shopfortywinks.com/,https://www.facebook.com/shopfortywinks,NA,https://www.instagram.com/fortywinkshs/,2020-03-23T15:48:48Z,56 JFK St.,42.371797,-71.120616,1,rooftop,02138,City of Cambridge
Four Seaons Nail Design,Closed,NA,889 Cambridge St,NA,NA,https://www.facebook.com/pages/Four-Seasons-Nail-Design/148846635140004,NA,NA,2020-03-21T21:57:54Z,889 Cambridge St,42.372648,-71.0917,1,rooftop,02141,City of Cambridge
Franco's Hair Studio,Closed,NA,157 Hampshire Street,NA,http://francoshairstudio.com/,https://www.facebook.com/Francos-hair-Studio-238036925450/,NA,NA,2020-03-21T21:14:56Z,157 Hampshire Street,42.371703,-71.098189,1,rooftop,02139,City of Cambridge
Frank's Steakhouse,Closed,NA,2310 Mass. Ave.,(617) 661-0666,http://www.frankssteakhouse.com/,https://www.facebook.com/Franks-Steak-House-263722288718/,NA,NA,2020-04-05T18:05:03Z,2310 Massachusetts Ave,42.395485,-71.12833,1,rooftop,02140,City of Cambridge
Fresh Mart,Closed,NA,222 Broadway,617- 876-2900,NA,NA,NA,NA,2020-03-21T19:29:51Z,222 Broadway,42.366463,-71.094031,1,rooftop,02139,City of Cambridge
Fresh Pond Ballet,Closed,NA,1798 Mass. Ave,NA,http://www.freshpondballet.com/,NA,NA,NA,2020-03-22T19:45:31Z,1798 Massachusetts Ave,42.386085,-71.11945,1,rooftop,02140,City of Cambridge
Friendly Corner Convenience Store,Open,NA,2408 Mass. Ave.,(857) 999-2057,https://friendly-corner-convenience.business.site/?utm_source=gmb&utm_medium=referral,NA,NA,NA,2020-03-22T18:15:26Z,2408 Massachusetts Ave,42.397387,-71.13048,1,rooftop,02140,City of Cambridge
Friendly Toast,Open,Take Out,One Kendall Square,617-621-1200,https://thefriendlytoast.com/location/cambridge-ma/,https://www.facebook.com/FriendlyToast/,https://twitter.com/toastcambridge?lang=en,https://www.instagram.com/_thefriendlytoast/?hl=en,2020-04-11T17:21:17Z,One Kendall Square,42.366971,-71.090615,0.33,place,02138,TIGER/Line® dataset from the US Census Bureau
Fuji Restaurant,Closed,NA,300 Third Street,617-252-0088,http://www.fujiatkendall.com/,https://www.facebook.com/FujiatKendall/,https://twitter.com/fujiatkendall?lang=en,https://www.instagram.com/fujiatkendall/?hl=en,2020-03-21T19:34:11Z,300 Third Street,42.365506,-71.08233,1,rooftop,02142,City of Cambridge
Fun Antiques,Closed,NA,2230 Mass. Ave.,617-492-0515,https://funntiques.com/,https://www.facebook.com/Fun-Antiques-131467230234914/,NA,NA,2020-04-05T18:05:03Z,2230 Massachusetts Ave,42.393735,-71.126365,1,rooftop,02140,City of Cambridge
Galante Insurance,Closed,NA,1939 Mass. Ave.,(617) 864-5586,https://www.galanteinsurance.com/,NA,NA,NA,2020-04-19T11:03:10Z,1939 Massachusetts Ave,42.389708,-71.120047,1,rooftop,02140,City of Cambridge
Garment District/Boston Costume,Closed,NA,200 Broadway,617-876-5230,https://garmentdistrict.com/,https://www.facebook.com/GarmentDistrictStore/,https://twitter.com/garmentdistrict?lang=en,https://www.instagram.com/garmentdistrict/?hl=en,2020-03-21T19:44:33Z,200 Broadway,42.366,-71.092848,1,rooftop,02139,City of Cambridge
Gather Here,Closed,Online Sales,1343 Cambridge Street,617-714-4880,https://gatherhereonline.com/,https://www.facebook.com/gatherhere/,https://twitter.com/gather_here,https://www.instagram.com/gather_here/,2020-03-23T12:29:51Z,1343 Cambridge Street,42.373722,-71.099962,1,rooftop,02139,City of Cambridge
General Optical Company,Closed,NA,2038 Mass Ave.,617-858-0043 for emergency services,https://www.generaloptical.com/,https://www.facebook.com/PorterSquareEye,https://twitter.com/PorterSquareE,NA,2020-04-19T11:29:45Z,2038 Massachusetts Ave,42.390785,-71.122315,1,rooftop,02140,City of Cambridge
Genki Ya,Open,"Delivery
Take Out",231 Alewife Brook Parkway,617-661-8200,http://www.genkiyasushi.com/,https://www.facebook.com/GenkiYaCambridge,NA,https://www.instagram.com/genkiya_sushi/,2020-03-23T12:29:51Z,231 Alewife Brook Parkway,42.389268,-71.143598,1,rooftop,02138,City of Cambridge
Get in Shape for Women,Closed,NA,1764 Mass. Ave,NA,https://www.getinshapeforwomen.com/locations/ma/portersquare/,NA,NA,NA,2020-03-22T20:23:08Z,1764 Massachusetts Ave,42.385349,-71.119532,1,rooftop,02140,City of Cambridge
Giulia,Open,Take Out,1682 Mass Ave.,(617) 441-2800,http://www.giuliarestaurant.com/menu/,NA,NA,https://www.instagram.com/giuliarestaurant/,2020-03-23T12:29:51Z,1682 Massachusetts Ave,42.382513,-71.119829,1,rooftop,02138,City of Cambridge
Glass House,Closed,NA,450 Kendall Street,NA,https://www.glasshousecambridge.com/,NA,NA,NA,2020-03-21T19:44:33Z,450 Kendall Street,42.363495,-71.081729,1,rooftop,02142,City of Cambridge
Golden Touch Cleaners,Open,NA,987 Massachusetts Ave,(617) 576-6840,NA,NA,NA,NA,2020-03-22T21:32:52Z,987 Massachusetts Ave,42.36931,-71.110847,1,rooftop,02138,City of Cambridge
"Gomes Travel Service, Inc.",Closed,NA,777 Cambridge Street.,617-354-4499,https://gomestravel.com/,NA,NA,NA,2020-03-29T14:12:15Z,777 Cambridge Street.,42.372378,-71.089599,1,rooftop,02141,City of Cambridge
Good Vibrations,Closed,Online Sales,52 JFK St.,NA,https://www.goodvibes.com/s/,NA,NA,NA,2020-03-23T15:48:48Z,52 JFK St.,42.371939,-71.120523,1,rooftop,02138,City of Cambridge
Goodwill Store,Closed,NA,520 Massachusetts Ave.,NA,https://www.goodwillmass.org/,NA,NA,NA,2020-03-23T14:14:50Z,520 Massachusetts Ave.,42.364172,-71.101942,1,rooftop,02139,City of Cambridge
Gorgeous Nails,Closed,NA,435 Cambridge St,NA,NA,https://www.facebook.com/pages/category/Nail-Salon/Gorgeous-Nails-Salon-160393293982843/,NA,NA,2020-03-21T21:57:54Z,435 Cambridge St,42.371578,-71.083425,1,rooftop,02141,City of Cambridge
Grace Note,Closed,Online Sales,150 First St,NA,https://www.gracenotecoffee.com/,https://www.facebook.com/gracenoteboston/,https://twitter.com/gracenoteboston,https://www.instagram.com/gracenotecoffee/,2020-03-23T12:29:51Z,150 First St,42.366274,-71.077811,1,rooftop,02141,City of Cambridge
Grafton Street Pub & Grill,Closed,NA,1230 Mass Ave,NA,https://graftonstreetcambridge.com/,https://www.facebook.com/graftonstreet,https://twitter.com/grafton02138,https://www.instagram.com/Grafton02138/,2020-03-22T22:41:49Z,1230 Massachusetts Ave,42.372266,-71.115832,1,rooftop,02138,City of Cambridge
Gran Gusto,Open,"Delivery
Take Out",90 Sherman St,617-441-0400,https://www.grangustocambridge.com/,https://www.facebook.com/grangustocambridge/,NA,NA,2020-03-23T12:29:51Z,90 Sherman St,42.3885,-71.132386,1,rooftop,02140,City of Cambridge
GrayMist Studio and Shop,Closed,Online Sales,364 Huron Ave.,NA,https://www.graymist.com/,https://www.facebook.com/GrayMStudio,NA,NA,2020-03-23T12:29:51Z,364 Huron Ave.,42.381067,-71.138816,1,rooftop,02138,City of Cambridge
Great Eastern Trading Company,Closed,Online Sales,49 River St,NA,www.greateasternvintage.com,https://www.facebook.com/GreatEasternTradingCo/,NA,https://www.instagram.com/greateasterntradingco/?hl=en,2020-03-23T12:33:28Z,49 River St,42.364666,-71.10667,1,rooftop,02139,City of Cambridge
Greek Corner,Open,Take Out,2366 Mass. Ave.,(617) 661-5655,https://greekcorner.us/,https://www.facebook.com/Greek-Corner-Restaurant-133102903372000/,NA,NA,2020-03-23T12:37:54Z,2366 Massachusetts Ave,42.396507,-71.129466,1,rooftop,02140,City of Cambridge
Grendel's Den,Open,"Delivery
Take Out",89 Winthrop St.,617-491-1160,https://www.grendelsden.com/,https://www.facebook.com/GrendelsDen/,NA,https://www.instagram.com/grendels_den/,2020-03-26T08:52:22Z,89 Winthrop St.,42.372396,-71.12081,1,rooftop,02138,City of Cambridge
Grolier Poetry Book Shop,Closed,NA,6 Plympton St,NA,http://grolierpoetrybookshop.org/,https://www.facebook.com/grolierpoetrybookshop/,https://twitter.com/Grolier_Poetry,https://www.instagram.com/grolierpoetry/,2020-03-23T08:13:01Z,6 Plympton St,42.372437,-71.11647,1,rooftop,02138,City of Cambridge
Guangzhou Restaurant,Open,"Delivery
Take Out",1220 Cambridge Street,(617) 547-6368,https://www.guangzhoucambridge.com/,NA,NA,NA,2020-03-23T12:37:54Z,1220 Cambridge Street,42.373249,-71.097774,1,rooftop,02139,City of Cambridge
Guitar Stop,Closed,Online Sales,1760 Mass. Ave.,(617) 876-0687,https://guitarstop.com/,https://www.facebook.com/GuitarStop/,https://twitter.com/guitarstop,https://www.instagram.com/guitar.stop/,2020-04-05T18:05:03Z,1760 Massachusetts Ave,42.385249,-71.119543,1,rooftop,02140,City of Cambridge
Gustazo Cuban Restauant & Café,Open,"Delivery
Take Out",2067 Mass. Ave.,855-487-8296,https://www.gustazo-cubancafe.com/cambridge/,NA,NA,NA,2020-03-23T12:37:54Z,2067 Massachusetts Ave,42.391478,-71.123102,1,rooftop,02140,City of Cambridge
Gymnastic Academy of Boston,Closed,NA,128 Smith Place,NA,https://gymnasticsacademyofboston.com/,https://www.facebook.com/GABCGymnastics/,NA,NA,2020-03-22T13:29:38Z,128 Smith Place,42.393808,-71.150234,1,rooftop,02138,City of Cambridge
Gypsy Place Coffee,Closed,NA,90 Hampshire St.,617-945-9736,https://www.gypsyplacecoffee.com/,NA,NA,NA,2020-04-23T12:09:24Z,90 Hampshire St.,42.368579,-71.094747,1,rooftop,02139,City of Cambridge
GYOstuff,Closed,Online Sales,2400 Mass. Ave.,NA,https://gyostuff.com/,https://www.facebook.com/ggrowyourown/,NA,https://www.instagram.com/ggrowyourown/,2020-04-05T18:05:03Z,2400 Massachusetts Ave,42.39717,-71.130228,1,rooftop,02140,City of Cambridge
Gypsy Place Coffee,Closed,NA,90 Hampshire St,NA,https://www.gypsyplacecoffee.com/,NA,NA,https://www.instagram.com/gypsyplacecoffee/,2020-03-25T14:37:08Z,90 Hampshire St,42.368579,-71.094747,1,rooftop,02139,City of Cambridge
Hair Collage,Closed,NA,759 Massachusetts Ave,NA,https://www.facebook.com/pages/Hair-Collage/141512132556273,NA,NA,NA,2020-03-22T10:48:10Z,759 Massachusetts Ave,42.36657,-71.105351,1,rooftop,02139,City of Cambridge
Hair Company,Closed,NA,1815 Mass. Ave.,NA,http://www.hair-co.com/index.html,NA,NA,NA,2020-03-22T19:40:02Z,1815 Massachusetts Ave,42.387136,-71.118975,1,rooftop,02140,City of Cambridge
Hair Connection,Closed,NA,1768 Mass. Ave.,NA,http://hairconnectioncambridge.com/,https://www.facebook.com/Hair-Connection-Cambridge-209966885739938/,NA,NA,2020-03-22T20:13:22Z,1768 Massachusetts Ave,42.385441,-71.119523,1,rooftop,02140,City of Cambridge
Hair International,Closed,NA,2300 Mass. Ave,(617) 864-4473,http://cambridge-hair-international.com/,NA,NA,NA,2020-03-22T18:59:08Z,2300 Massachusetts Ave,42.395108,-71.127897,1,rooftop,02140,City of Cambridge
Hair Theory Studio,Closed,NA,5 Arrow St,NA,https://www.hairtheorystudio.com/,https://www.facebook.com/hairtheorystudio,NA,https://www.instagram.com/hairtheorystudio/,2020-03-22T22:17:52Z,5 Arrow St,42.371205,-71.114632,1,rooftop,02138,City of Cambridge
Half Shell Pizza,Open,"Delivery
Take Out",1760 Mass Ave,(617) 876-9596,NA,https://www.facebook.com/pages/The-Half-Shell/111644678872733,NA,NA,2020-03-23T14:14:50Z,1760 Massachusetts Ave,42.385249,-71.119543,1,rooftop,02140,City of Cambridge
Hallie's Flower Garden,Open,"Delivery
Take Out",248 Huron Ave,617-354-8000,https://halliesflowergarden.com/,NA,NA,NA,2020-03-25T14:37:08Z,248 Huron Ave,42.381352,-71.133857,1,rooftop,02138,"Office of Geographic Information (MassGIS), Commonwealth of Massachusetts, MassIT"
Hampshire Market,Open,NA,117 Hampshire Street,617-547-8985,NA,NA,NA,NA,2020-03-21T21:14:56Z,117 Hampshire Street,42.369909,-71.096,1,rooftop,02139,City of Cambridge
Harding House,Open,NA,288 Harvard St.,(617) 876-2888,https://harding-house.com/,NA,NA,NA,2020-03-22T14:36:06Z,288 Harvard St.,42.369309,-71.104932,1,rooftop,02139,City of Cambridge
Harvard Beauty Spa,Closed,NA,997 Massachusetts Ave,617-945-2955,https://www.harvardbeautyspa.com/,NA,NA,NA,2020-03-22T21:32:52Z,997 Massachusetts Ave,42.369401,-71.111102,1,rooftop,02138,City of Cambridge
Harvard Coop,Closed,Online Sales,1400 Mass Ave,NA,https://store.thecoop.com/,https://www.facebook.com/TheHarvardCoop/,NA,NA,2020-03-23T14:31:13Z,1400 Massachusetts Ave,42.373652,-71.119358,1,rooftop,02138,City of Cambridge
Harvard Eyebrow Threading,Closed,NA,12 Eliot St.,(617) 945-7442,NA,NA,NA,NA,2020-03-23T16:28:45Z,12 Eliot St.,42.372361,-71.121618,1,rooftop,02138,City of Cambridge
Harvard House of Pizza,Open,"Delivery
Take Out",1706 Mass. Ave.,(617) 864-8090,https://www.harvardhouseofpizza.com/,https://www.facebook.com/harvardhouseofpizza?fref=ts,NA,NA,2020-03-23T12:37:54Z,1706 Massachusetts Ave,42.383305,-71.119762,1,rooftop,02138,City of Cambridge
Harvard Shop,Closed,Online Sales,All Locations,NA,https://www.theharvardshop.com/,https://www.facebook.com/harvardshop/,NA,https://www.instagram.com/officialharvardshop/,2020-03-23T15:38:33Z,All Locations,42.380442,-71.132947,1,place,02138,TIGER/Line® dataset from the US Census Bureau
Harvard Square Bookstore,Closed,Online Sales,1256 Mass. Ave.,(617) 661-1515,http://www.harvard.com/index.php?/,https://www.facebook.com/harvardbookstore,https://twitter.com/HarvardBooks,https://www.instagram.com/harvardbookstore/,2020-04-05T18:05:03Z,1256 Massachusetts Ave,42.372557,-71.116293,1,rooftop,02138,City of Cambridge
Harvard Square Eye Care,Closed,Online Sales,All Cambridge locations,NA,https://harvardsquareeyecare.com/,NA,NA,NA,2020-04-19T11:03:10Z,NA,NA,NA,NA,NA,NA,NA
Harvard Square Shiatsu,Closed,NA,186 Hampshire Street,NA,http://www.harvardsquareshiatsu.com/,NA,NA,NA,2020-03-21T21:01:51Z,186 Hampshire Street,42.372519,-71.099558,1,rooftop,02139,City of Cambridge
Harvard Wine Company,Open,NA,1664 Mass. Ave.,(617) 547-3900,NA,NA,NA,NA,2020-03-22T21:09:29Z,1664 Massachusetts Ave,42.38197,-71.119896,1,rooftop,02138,City of Cambridge
Harvest,Closed,NA,44 Brattle St,NA,https://harvestcambridge.com/,https://www.facebook.com/dineatharvest/,https://twitter.com/DineAtHarvest,https://www.instagram.com/dineatharvest/,2020-03-23T14:52:45Z,44 Brattle St,42.373915,-71.121581,1,rooftop,02138,City of Cambridge
Harvest of India,Open,"Delivery
Take Out",1001 Massachusetts Ave,NA,https://www.harvestofindiacambridge.com/,NA,NA,NA,2020-03-25T14:37:08Z,1001 Massachusetts Ave,42.369487,-71.111341,1,rooftop,02138,City of Cambridge
Havana Club,Closed,NA,288 Green St,NA,http://www.havanaclubsalsa.com/,NA,NA,NA,2020-03-22T11:15:22Z,288 Green St,42.364737,-71.104254,1,rooftop,02139,City of Cambridge
Headlines Unisex Barbershop,Closed,NA,1111 Cambridge Street,NA,https://www.headlinesunisexbarbershop.com/,https://www.facebook.com/HeadLinesUnisexBarbershop/,NA,NA,2020-03-23T16:46:14Z,1111 Cambridge Street,42.373165,-71.095685,1,rooftop,02139,City of Cambridge
Healthworks,Closed,Online Sales,35 White St.,NA,https://healthworksfitness.com/cambridge/,NA,NA,NA,2020-04-11T17:21:17Z,35 White St.,42.388914,-71.119192,1,rooftop,02140,City of Cambridge
Heartbreak Hill Running Company,Closed,Online Sales,294 Massachusetts Ave,NA,https://www.heartbreakhillrunningcompany.com/,https://www.facebook.com/heartbreakhillrunningcompany?_rdr=p,https://twitter.com/heartbreakrunco,https://www.instagram.com/heartbreakrunco/,2020-03-23T12:37:54Z,294 Massachusetts Ave,42.361983,-71.098506,1,rooftop,02139,"Office of Geographic Information (MassGIS), Commonwealth of Massachusetts, MassIT"
Helmand,Open,Delivery,143 First St,(617) 492-4646,https://www.helmandrestaurant.com/,NA,NA,NA,2020-03-23T12:37:54Z,143 First St,42.366496,-71.07801,1,rooftop,02141,City of Cambridge
Hempest,Closed,Online Sales,36 JFK St,NA,https://www.hempest.com/,https://www.facebook.com/hempest/,NA,NA,2020-03-23T15:30:49Z,36 JFK St,42.372747,-71.119871,1,rooftop,02138,City of Cambridge
Henrietta's Table,Closed,NA,1 Bennett St.,NA,https://www.henriettastable.com/,NA,NA,https://www.instagram.com/henriettastable/,2020-03-23T16:35:27Z,1 Bennett St.,42.371992,-71.122511,1,rooftop,02138,City of Cambridge
Henry Bear's Park,Closed,Online Sales,Porter Square Shopping Mall,617-547-8424,https://www.henrybear.com/,https://www.facebook.com/HenryBearsPark/,https://twitter.com/henrybearspark,https://www.instagram.com/henrybearspark/,2020-03-25T14:48:36Z,Porter Square Shopping Mall,42.38891,-71.119316,1,street_center,02140,TIGER/Line® dataset from the US Census Bureau
Hi-Rise Bread Company,Open,"Delivery
Take Out",208 Concord Ave,617-876-8766,http://www.hi-risebread.com/,https://www.facebook.com/HiRiseBreadCompany,https://twitter.com/HiRiseBreadCo,https://www.instagram.com/hirisebreadco/,2020-03-25T14:37:08Z,208 Concord Ave,42.382508,-71.131357,1,rooftop,02138,City of Cambridge
Hi-Rise Bread Company,Closed,NA,1663 Mass Ave.,NA,http://www.hi-risebread.com/,https://www.facebook.com/HiRiseBreadCompany,https://twitter.com/HiRiseBreadCo,https://www.instagram.com/hirisebreadco/,2020-03-22T10:03:35Z,1663 Massachusetts Ave,42.381823,-71.119516,1,rooftop,02138,City of Cambridge
Hidden Treasures,Closed,NA,36 JFK St.,(617) 492-5411,NA,NA,NA,NA,2020-03-23T15:30:49Z,36 JFK St.,42.372747,-71.119871,1,rooftop,02138,City of Cambridge
Highland Fried,Closed,NA,1271 Cambridge Street,NA,https://www.highlandfried.com/,https://www.facebook.com/Highlandfried/,https://twitter.com/HighlandFried,https://www.instagram.com/highlandfriedandtiki/,2020-03-21T20:49:03Z,1271 Cambridge Street,42.373558,-71.098697,1,rooftop,02139,City of Cambridge
Hillside Cleaners,Open,NA,NA,NA,https://www.hillsidecleaners.com/,NA,NA,NA,2020-03-23T14:31:13Z,NA,NA,NA,NA,NA,NA,NA
Hilton Tent City,Closed,Online Sales,565 Massachusetts Ave.,(617) 227-9242,https://www.hiltonstentcity.com/,https://www.facebook.com/hiltonstentcity,NA,https://www.instagram.com/hiltonstentcity/,2020-03-25T14:48:36Z,565 Massachusetts Ave.,42.364789,-71.10236,1,rooftop,02139,City of Cambridge
Himalayan Arts & Crafts,Closed,Online Sales,8 Bow St,617-599-5303,https://himalayanartsandcraft.com/,NA,NA,NA,2020-03-23T14:31:13Z,8 Bow St,42.371841,-71.115534,1,rooftop,02138,City of Cambridge
HMart,Open,NA,581 Mass. Ave.,(857) 209-2747,https://www.hmart.com/storelocator/index/index/id/27/,NA,NA,NA,2020-03-22T12:26:32Z,581 Massachusetts Ave,42.365016,-71.102736,1,rooftop,02139,City of Cambridge
Honeycomb Creamery,Open,"Delivery
Take Out",1702 Mass. Ave.,NA,https://www.honeycombcreamery.com/,https://www.facebook.com/honeycombcreamery/,https://twitter.com/hccreamery?ref_src=twsrc%5Egoogle%7Ctwcamp%5Eserp%7Ctwgr%5Eauthor,https://www.instagram.com/honeycombcreamery/?hl=en,2020-04-22T20:25:14Z,1702 Massachusetts Ave,42.383187,-71.119761,1,rooftop,02138,City of Cambridge
Hong Kong Restaurant,Closed,NA,1238 Mass. Ave.,617-864-5311,http://www.hongkongharvard.com/,https://www.facebook.com/hongkongrestaurant,https://twitter.com/hongkongharvard,NA,2020-03-23T12:51:09Z,1238 Massachusetts Ave,42.372362,-71.115943,1,rooftop,02138,City of Cambridge
Hotel 1868,Open,NA,1868 Mass. Ave.,NA,https://www.hotel1868.com/,NA,NA,NA,2020-03-22T16:25:55Z,1868 Massachusetts Ave,42.388084,-71.119575,1,rooftop,02140,City of Cambridge
Hourglass Tattoo,Closed,NA,1680 Mass. Ave.,617.868.3300,https://cambridgetattoo.com/,NA,NA,NA,2020-03-22T20:50:19Z,1680 Massachusetts Ave,42.382433,-71.119841,1,rooftop,02138,City of Cambridge
House of Chang,Closed,NA,282 Concord Ave,617.547.9888,https://www.houseofchangcambridge.com/,NA,NA,NA,2020-04-08T11:04:54Z,282 Concord Ave,42.383521,-71.133652,1,rooftop,02138,City of Cambridge
Hubba Hubba,Closed,NA,2 Ellery St,NA,https://hubbahubba.com/,https://www.facebook.com/HubbaHubbaStore/,NA,https://www.instagram.com/hubbahubbastore/,2020-03-22T21:43:15Z,2 Ellery St,42.369697,-71.111698,1,rooftop,02138,City of Cambridge
Huron Cleaners,Open,NA,1654 Mass. Ave.,(617) 661-3777,NA,NA,NA,NA,2020-03-22T21:09:29Z,1654 Massachusetts Ave,42.381626,-71.11995,1,rooftop,02138,City of Cambridge
iFixonWheels,Open,NA,361 Cambridge St,(833) 200-4349,https://www.ifixonwheelz.com/,NA,NA,NA,2020-03-22T09:28:14Z,361 Cambridge St,42.371411,-71.082079,1,rooftop,02141,City of Cambridge
Iggy's Bread,Open,Delivery,130 Fawcett St,NA,https://www.iggysbread.com/,https://www.facebook.com/IggysBread,NA,NA,2020-03-23T12:51:09Z,130 Fawcett St,42.39336,-71.148158,1,rooftop,02138,City of Cambridge
IK Bio Jewelry,Open,Online Sales,NA,NA,NA,https://www.facebook.com/ikbiojewelry/,NA,NA,2020-04-21T07:59:57Z,NA,NA,NA,NA,NA,NA,NA
Image Care Electrolysis,Closed,NA,1426 Cambridge Street,NA,http://www.imagecare-electrolysis.com/,https://www.facebook.com/Image-Care-Electrolysis-Advanced-Skin-Care-183511148684201/,NA,NA,2020-03-21T21:01:51Z,1426 Cambridge Street,42.373774,-71.10201,1,rooftop,02139,City of Cambridge
Imagine Playspace,Closed,NA,23 Bay State Road,NA,http://www.imaginecambridge.com/,NA,NA,NA,2020-03-22T12:42:21Z,23 Bay State Road,42.387338,-71.140316,1,rooftop,02138,City of Cambridge
Imperial Cleaners,Open,NA,161 Huron Ave,(617) 547-3316,NA,NA,NA,NA,2020-03-22T08:45:32Z,161 Huron Ave,42.382437,-71.131248,1,rooftop,02138,City of Cambridge
Improv Boston,Closed,Online Sales,40 Prospect St,NA,https://improvboston.com/?gclid=CjwKCAjwsMzzBRACEiwAx4lLG9JfLV0eZEgOLZ4y-LfDkyyoybMfPOUtv3cxz2NscYrzhOX9dks-ChoCHWMQAvD_BwE,https://www.facebook.com/ImprovBoston,https://twitter.com/improvboston,https://www.instagram.com/improvboston/,2020-03-23T12:51:09Z,40 Prospect St,42.366127,-71.103276,1,rooftop,02139,City of Cambridge
In Style Barber Shop,Closed,NA,566 Cambridge St,(617) 864-1916,NA,https://www.facebook.com/pages/category/Barber-Shop/Instyle-Barber-Shop-835091596512552/,NA,NA,2020-03-22T09:28:14Z,566 Cambridge St,42.371688,-71.085773,1,rooftop,02141,City of Cambridge
India Pavilion,Open,"Delivery
Take Out",17 Central Square,NA,https://indiapavilion.co/,NA,NA,NA,2020-03-23T12:51:09Z,17 Central Square,42.365375,-71.10476,1,rooftop,02139,City of Cambridge
Inman Oasis,Closed,NA,243 Hampshire Street,NA,https://www.inmanoasis.com/,NA,NA,NA,2020-03-28T09:14:13Z,243 Hampshire Street,42.374111,-71.101111,1,rooftop,02139,City of Cambridge
Inman Pharmacy,Open,NA,1414 Cambridge Street,617-876-4868,https://www.inmanpharmacy.com/,NA,NA,NA,2020-03-21T21:01:51Z,1414 Cambridge Street,42.373737,-71.101571,1,rooftop,02139,City of Cambridge
Inman Square Hardware,Open,NA,1337 Cambridge Street,617-491-3405,https://www.inmansquarehardware.com/,https://www.facebook.com/InmanSquareHardware,NA,NA,2020-03-21T20:27:26Z,1337 Cambridge Street,42.373706,-71.099852,1,rooftop,02139,City of Cambridge
Inman Square Laudromat,Open,NA,1298 Cambridge Street,857-891-8174,NA,NA,NA,NA,2020-03-21T21:26:25Z,1298 Cambridge Street,42.373426,-71.099173,1,rooftop,02139,City of Cambridge
Inman Square Wine and Spirits,Open,NA,1226 Cambridge Street,(617) 945-2902,https://www.inmansquarewine.com/,https://www.facebook.com/InmanSquareWine/,NA,https://www.instagram.com/inmansquarewinenspirits/,2020-03-21T21:26:25Z,1226 Cambridge Street,42.37326,-71.09786,1,rooftop,02139,City of Cambridge
Inner Space Mediation Center and Gallery,Closed,NA,1110 Massachusetts Ave,NA,https://innerspaceharvardsq.org/,NA,https://twitter.com/innerspharvard,NA,2020-03-22T21:58:44Z,1110 Massachusetts Ave,42.370618,-71.11378,1,rooftop,02138,City of Cambridge
Irving House,Open,NA,24 Irving St.,(617) 547-4600,https://www.irvinghouse.com/,NA,NA,NA,2020-03-22T14:36:06Z,24 Irving St.,42.37555,-71.110832,1,rooftop,02138,City of Cambridge
Isabel Y Anita Gallery Salon,Closed,NA,1168 Massachusetts Ave,(857) 242-4935,NA,https://www.facebook.com/pages/category/Beauty--Cosmetic---Personal-Care/Isabel-Y-Anita-Gallery-Salon-601928523316473/,NA,NA,2020-03-22T22:17:52Z,1168 Massachusetts Ave,42.371371,-71.114715,1,rooftop,02138,City of Cambridge
Ittoku,Open,"Delivery
Take Out",1815 Mass. Ave.,617-608-3630,https://ittoku.org/,https://www.facebook.com/Izakaya-Ittoku-191428244355243/,NA,https://www.instagram.com/izakayaittoku/,2020-03-25T14:48:36Z,1815 Massachusetts Ave,42.387136,-71.118975,1,rooftop,02140,City of Cambridge
Izzy's Restaurant and Sub Shop,Open,Take Out,169 Harvard Street,617-661-3910,http://www.izzysrestaurantcambridge.com/,https://www.facebook.com/izzysrestaurantcambridge/,https://twitter.com/IzzysCambridge,NA,2020-03-23T12:51:09Z,169 Harvard Street,42.366212,-71.095607,1,rooftop,02139,City of Cambridge
J. August,Closed,NA,1320 Mass Ave,NA,NA,NA,NA,NA,2020-03-23T14:31:13Z,1320 Massachusetts Ave,42.372932,-71.117663,1,rooftop,02138,City of Cambridge
J. Miles,Closed,NA,340 Huron Avve.,(617) 547-9604,NA,NA,NA,NA,2020-04-07T19:58:05Z,340 Huron Ave.,42.381177,-71.137802,1,rooftop,02138,City of Cambridge
J.P. Licks,Open,Delivery,1312 Mass. Ave.,NA,https://jplicks.com/locations/f/Cambridge-~amp~-Somerville/28,NA,NA,NA,2020-03-23T12:51:09Z,1312 Massachusetts Ave,42.372894,-71.11751,1,rooftop,02138,City of Cambridge
Jack's Tailoring & Dry Cleaning,Open,NA,1937 Mass. Ave.,(617) 868-8339,http://www.jackstailoring.com/,NA,NA,NA,2020-03-22T16:58:07Z,1937 Massachusetts Ave,42.389651,-71.119992,1,rooftop,02140,City of Cambridge
Jar H Kim Tae Kwan Do,Closed,Online Sales,2000 Mass. Ave.,617-492-5070,https://tkd-cambridge.com,https://www.facebook.com/tkdcambridge,https://twitter.com/jhkim_cambridge,https://www.instagram.com/jaekim.tkd.cambridge/,2020-03-29T14:12:15Z,2000 Massachusetts Ave,42.390347,-71.121412,1,rooftop,02140,City of Cambridge
